"","business_id","name","neighborhood","address","city","state","postal_code","latitude","longitude","stars","review_count","is_open","categories"
"1","rDMptJYWtnMhpQu_rRXHng","""""McDonald's""""","","""""719 E Thunderbird Rd""""","Phoenix","AZ","85022",33.6070702,-112.0643825,1,10,1,"Fast Food;Burgers;Restaurants"
"2","1WBkAuQg81kokZIPMpn9Zg","""""Charr An American Burger Bar""""","","""""777 E Thunderbird Rd, Ste 107""""","Phoenix","AZ","85022",33.60731,-112.063404,3,232,1,"Burgers;Restaurants"
"3","Pd52CjgyEU3Rb8co6QfTPw","""""Flight Deck Bar & Grill""""","Southeast","""""6730 S Las Vegas Blvd""""","Las Vegas","NV","89119",36.0669136,-115.1708484,4,13,1,"Nightlife;Bars;Barbeque;Sports Bars;American (New);Restaurants"
"4","4srfPk1s8nlm1YusyDUbjg","""""Subway""""","Southeast","""""6889 S Eastern Ave, Ste 101""""","Las Vegas","NV","89119",36.0646523,-115.1189541,2.5,6,1,"Fast Food;Restaurants;Sandwiches"
"5","n7V4cD-KqqE3OXk0irJTyA","""""GameWorks""""","Southeast","""""6587 Las Vegas Blvd S, Ste 171""""","Las Vegas","NV","89119",36.0682585154,-115.1788768,3,349,1,"Arcades;Arts & Entertainment;Gastropubs;Restaurants;American (New)"
"6","iPa__LOhse-hobC2Xmp-Kw","""""McDonald's""""","","""""1635 E Camelback Rd""""","Phoenix","AZ","85016",33.5087649,-112.04624,3,34,1,"Restaurants;Burgers;Fast Food"
"7","kKx8iCJkomVQBdWHnmmOiA","""""Little Caesars Pizza""""","","""""10720 E Southern Ave""""","Mesa","AZ","85209",33.3948766,-111.6001938,2.5,4,1,"Restaurants;Pizza"
"8","YhV93k9uiMdr3FlV4FHjwA","""""Caviness Studio""""","","""""""""","Phoenix","AZ","85001",33.4499672,-112.0702225,5,4,1,"Marketing;Men's Clothing;Restaurants;Graphic Design;Women's Clothing;Screen Printing;Advertising;Pizza;Shopping;Web Design;Fashion;Local Services;Screen Printing/T-Shirt Printing;Professional Services"
"9","F0fEKpTk7gAmuSFI0KW1eQ","""""Cafe Mastrioni""""","Spring Valley","""""4250 S Rainbow Blvd, Ste 1007""""","Las Vegas","NV","89103",36.1110572,-115.2416881,1.5,3,0,"Italian;Restaurants"
"10","VdlPZg2NAu8t8GkdbPLecg","""""Tandoori Times Indian Bistro""""","","""""8140 N Hayden Rd, Ste H115""""","Scottsdale","AZ","85258",33.5552118623,-111.900456296,3.5,263,1,"Restaurants;Gluten-Free;Indian;Seafood"
"11","QkG3KUXwqZBW18A9k1xqCA","""""Red Lobster""""","","""""2810 North 75th Ave""""","Phoenix","AZ","85035",33.4787353,-112.2213794,2.5,37,1,"American (Traditional);Restaurants;Seafood"
"12","5XejqzaFmtkZMstJS5Iy-w","""""D'Lish Cafe""""","","""""503 W Thomas Rd""""","Phoenix","AZ","85013",33.4803014,-112.0805864,4,37,0,"Vegan;American (New);Restaurants;Sandwiches;Salad;Wraps;Food"
"13","Wpt0sFHcPtV5MO9He7yMKQ","""""McDonald's""""","Eastside","""""3020 E Desert Inn Rd""""","Las Vegas","NV","89121",36.1300128,-115.10931,2,20,1,"Restaurants;Fast Food;Burgers"
"14","MTH-AcNyWfsBa9sXp04HcQ","""""Firehouse Subs""""","","""""3420 E Baseline Rd, Ste 101""""","Mesa","AZ","85204",33.3796209,-111.7571603,3.5,82,1,"Food;Delis;Fast Food;Sandwiches;Restaurants"
"15","nigYwB_m1TQ1WosjSWi-Hw","""""Simply Burgers""""","","""""1455 W Elliot Rd""""","Gilbert","AZ","85233",33.3496582,-111.8212381,3,5,0,"Burgers;Restaurants"
"16","W1Yr6c2XDx_RBjb6WsV-aQ","""""Divine Cafe at the Springs Preserve""""","Westside","""""333 S Valley View Blvd""""","Las Vegas","NV","89152",36.1707064994,-115.190288481,4,140,1,"Restaurants;Cafes;American (New);Bars;Nightlife;Wine Bars"
"17","vzx1WdVivFsaN4QYrez2rw","""""Subway""""","","""""5111 Boulder Hwy""""","Las Vegas","NV","89122",36.1128952,-115.0623534,3,3,1,"Sandwiches;Restaurants;Fast Food"
"18","Uy3_5nLo3sYkAuSX6mjdmg","""""Geebee's Bar & Grill""""","Southeast","""""8560 Las Vegas Blvd S""""","Las Vegas","NV","89123",36.0342435,-115.1714093,4.5,33,0,"Restaurants;American (Traditional)"
"19","2v-8QQfMLX2PCz-0S6gISQ","""""Papa John's Pizza""""","","""""3441 W Northern Ave""""","Phoenix","AZ","85051",33.5528695002,-112.133711849,2.5,7,1,"Pizza;Restaurants;Fast Food"
"20","M3uV9Y3EDSpy9d4YwyNSAQ","""""Yakiramen""""","","""""10605 N 43rd Ave""""","Phoenix","AZ","85029",33.5823628,-112.1498845,4,66,1,"Nightlife;Japanese;Music Venues;Ramen;Arts & Entertainment;Restaurants;Bars"
"21","Qv0OEziLJwyAqcgtrTsA4w","""""Luke's Of Chicago""""","","""""15223 N Northsight Blvd""""","Scottsdale","AZ","85260",33.6228299458,-111.892189979,3.5,50,0,"Italian;Restaurants;Sandwiches;Hot Dogs"
"22","6PwKC0dqP9uI85FEP86iPQ","""""Red Viet Cuisine - Sushi""""","","""""5221 S Power Rd, Ste 104""""","MESA","AZ","85212",33.3210685814,-111.685171832,3.5,164,0,"Sushi Bars;Restaurants;Japanese;Asian Fusion;Vietnamese"
"23","U1ZVgF-kfkvv_rcoe0RglQ","""""Pho Noodles""""","","""""3417 N 7th Ave""""","Phoenix","AZ","85013",33.4887595,-112.082401842,4.5,172,1,"Restaurants;Noodles;Vietnamese"
"24","FfI9FOaQqzUxixw6_glt3Q","""""Affinito's Bistro""""","","""""3655 W Anthem Way, Ste C-137""""","Phoenix","AZ","85086",33.8649643,-112.1388202,3,6,0,"Restaurants;Italian"
"25","3b4efqz06QrLQ_w2xLc4pA","""""Olive Garden Italian Restaurant""""","","""""10223 N Metro Parkway E""""","Phoenix","AZ","85051",33.5803023,-112.1196529,3,40,0,"Restaurants;Italian"
"26","dPxZI9lrKTl5dvFfnb1_Ig","""""Trattoria Italia""""","Anthem","""""9905 S Eastern Ave, Ste 140""""","Las Vegas","NV","89183",36.0100856,-115.1186563,4.5,210,1,"Seafood;Italian;Pizza;Restaurants"
"27","RAUI7uwpMP6dlcHXkavwHg","""""Smashburger""""","","""""5215 W Baseline Rd""""","Laveen","AZ","85339",33.3764804463,-112.171588953,3,23,1,"Burgers;Restaurants"
"28","irYAkavSVtIEyGOsHK-yPw","""""Palette""""","","""""1625 N Central Ave""""","Phoenix","AZ","85004",33.4667324,-112.0727233,3.5,43,1,"Event Planning & Services;American (New);Sandwiches;Salad;Caterers;Restaurants"
"29","WfB_SsYeKy83QQsqAAyGVQ","""""Cancun Bar & Grill""""","Southeast","""""5006 S Maryland Pkwy, Ste 17""""","Las Vegas","NV","89119",36.0986321,-115.1360793,4.5,5,1,"Karaoke;Bars;Mexican;Restaurants;Nightlife;Dance Clubs"
"30","mFE7N0p3f_7vcMTUy76ifw","""""Village Inn""""","","""""2780 E Germann Rd""""","Chandler","AZ","85248",33.2792396,-111.7928411,3.5,49,1,"American (Traditional);Breakfast & Brunch;Salad;Burgers;Restaurants"
"31","9zSRAOUIM3I2ZnY9xwvioQ","""""Sandstone Cafe""""","","""""4959 W Ray Rd""""","Chandler","AZ","85226",33.3183691,-111.9276449,3,10,0,"Restaurants;American (Traditional)"
"32","_eKvk2GoGKb3CoYolHgRlg","""""Fresko A Mediterranean Kitchen""""","","""""5033 E Elliot Rd""""","Phoenix","AZ","85044",33.347893,-111.9768218,4.5,88,1,"Greek;Vegetarian;Sandwiches;Mediterranean;Restaurants"
"33","SAae44V24aD7y_HpgxjhPA","""""Nando's Mexican Cafe""""","","""""6715 E McDowell Rd""""","Mesa","AZ","85215",33.4658931,-111.6858266,3.5,192,1,"Restaurants;Mexican"
"34","kRgP3LxO2ugBrC1YpWLncA","""""Bangkok Thai Bar-B-Q""""","","""""13828 N 51st Ave""""","Glendale","AZ","85306",33.611520848,-112.170486564,4,131,1,"Restaurants;Asian Fusion;Thai"
"35","mfQlXkeNhW1vz_1iq63mNQ","""""Del Taco""""","","""""1483 N Dysart Rd""""","Avondale","AZ","85323",33.454393,-112.3404076,2.5,23,1,"Restaurants;Fast Food;Mexican"
"36","owwKUc2VFUMgRPZFEgrtKA","""""Pho Dam""""","","""""2025 N Dobson Rd""""","Chandler","AZ","85224",33.3362676,-111.8741442,4,17,1,"Restaurants;Vietnamese"
"37","6CpAWkTcqqNtGAfOsPeFUw","""""Arby's""""","","""""17032 N 99th Ave""""","Sun City","AZ","85373",33.6392628656,-112.275256168,3.5,9,1,"American (Traditional);Restaurants;Sandwiches;Steakhouses;American (New);Fast Food"
"38","u29lf2yPd-qK5ThAS9FRQQ","""""Kinthai""""","Westside","""""4105 W Sahara Ave""""","Las Vegas","NV","89102",36.1440231017,-115.195895992,4.5,61,0,"Restaurants;Thai"
"39","KYEZATGRY5aD69ZR6VvyWQ","""""North Forty Saloon and BBQ""""","Centennial","""""5990 Centennial Center Blvd""""","Las Vegas","NV","89149",36.2718383376,-115.263279393,3.5,31,0,"Dance Clubs;Nightlife;Restaurants;Barbeque;American (Traditional)"
"40","pBoWsom3mZFYo9EucIWRDg","""""Kabuki Sushi & Grill""""","","""""8378 W Thunderbird Rd, Ste 107""""","Peoria","AZ","85381",33.6114217,-112.2395205,4,157,1,"Restaurants;Japanese;Sushi Bars"
"41","7J_8O6w79raFRSORc3bRew","""""AZ Pho & Grill""""","","""""3140 S Gilbert Rd, Ste 1""""","Chandler","AZ","85286",33.2606908,-111.7903737,4,249,1,"Bubble Tea;Restaurants;Food;Vietnamese"
"42","qB15WElGAlI_eGWjn0kT2w","""""Taco Bell""""","","""""15240 N. 32nd Street""""","Phoenix","AZ","85032",33.6259,-112.0136,2,18,1,"Tex-Mex;Fast Food;Restaurants;Mexican"
"43","rSCevr5tQJTxPzMIq3n5Gw","""""Yoshi's Asian Grill""""","","""""3800 E Sky Harbor Blvd""""","Phoenix","AZ","85034",33.4356207,-112.0095457,2.5,14,0,"Restaurants;Asian Fusion"
"44","tCJGEQVqjELLYv3fPNX5Rw","""""Fleming's Prime Steakhouse-Scottsdale""""","","""""20753 N Pima Rd""""","Scottsdale","AZ","85255",33.674238,-111.889288,3.5,190,1,"Nightlife;Restaurants;Steakhouses;Wine Bars;Bars;Seafood"
"45","W8GVfGILy7an385lZSEvSw","""""Burger King""""","","""""1736 Las Vegas Blvd S""""","Las Vegas","NV","89104",36.150372,-115.153558,2,18,1,"Burgers;Restaurants"
"46","rv9T1qGHbh9eXqFpKEPy_A","""""Sesame Inn Carefree""""","","""""34482 N Scottsdale Rd""""","Scottsdale","AZ","85262",33.7983014,-111.9307437,3.5,90,1,"Restaurants;Chinese"
"47","75RP4HSsSJOe_e7e2e3jQQ","""""Rise & Shine - A Steak & Egg Place""""","","""""75 S Valle Verde Dr""""","Henderson","NV","89012",36.0243234052,-115.062857419,4,29,1,"Breakfast & Brunch;Restaurants"
"48","wRmPV-RvcqcjeyUeOaJQCg","""""The Bass Cafe Grill & Terrace""""","Eastside","""""900 Karen Ave""""","Las Vegas","NV","89109",36.1409252,-115.1428874,2.5,3,1,"Restaurants;American (Traditional);Food;Coffee & Tea;Salad;Breakfast & Brunch"
"49","1Nq7GxjvEDgAJxBeOjR_9Q","""""Burrito Express""""","","""""450 N Alma School R""""","Mesa","AZ","85201",33.4235954,-111.8568585,2.5,92,1,"Mexican;Restaurants"
"50","to2cGMKdaw7ZHbXMzpfhlA","""""Filiberto's Mexican Rest""""","","""""3218 E Mcdowell Rd""""","Phoenix","AZ","85008",33.4660114,-112.0123338,3,7,0,"Restaurants;Mexican"
"51","X2oxkKB-wlu8xV0P8fbfiQ","""""Mo's Chicken""""","","""""3505 W Thomas Rd""""","Phoenix","AZ","85019",33.4800487,-112.1347018,3,10,1,"Restaurants;Chicken Shop"
"52","EgGdnaotJpPvxCFyZPJeUw","""""Pizza Hut""""","Northwest","""""4945 W. Craig Road""""","Las Vegas","NV","89130",36.238059,-115.210341,2,13,1,"Restaurants;Pizza"
"53","-Ut87cwGFsO3444Rd11p0Q","""""Federico's Mexican Food""""","","""""13132 W Camelback Rd""""","Litchfield Park","AZ","85340",33.508441,-112.341953,3.5,63,1,"Mexican;Restaurants"
"54","D1E_6MBFKeU2a7EQ4IwoEQ","""""Little Caesars Pizza""""","","""""13011 W Greenway Blvd""""","El Mirage","AZ","85335",33.6230548882,-112.33975752,2.5,15,1,"Restaurants;Pizza"
"55","AfL8Ds7ex73tfVbq3EFWKg","""""Baja Fresh""""","Westside","""""8780 W Charleston Blvd, Ste 100""""","Las Vegas","NV","89117",36.1594825,-115.2874508,5,6,1,"Restaurants;Mexican"
"56","LPq-IOpA_VrZ2xRh1A6Ssw","""""The Saguaro Restaurant""""","","""""4000 North Drinkwater Blvd""""","Scottsdale","AZ","85251",33.4941213,-111.9227616,3.5,10,1,"Event Planning & Services;Sandwiches;Restaurants;Nightlife;American (Traditional);Salad;Cocktail Bars;Venues & Event Spaces;Bars"
"57","0LKcSabd5Gd5oz-qrHTzZg","""""Cin-Cin Restaurant""""","","""""4425 N Buckboard Trl.""""","Scottsdale","AZ","85251",33.5012604,-111.9233633,3,5,0,"Lounges;Restaurants;Nightlife;Bars;Italian"
"58","mZK8IBkMFzOX2UmA7_BylA","""""IHOP""""","","""""935 W Elliot Rd""""","Chandler","AZ","85224",33.3493477,-111.8565147,2.5,78,1,"American (New);Restaurants;Breakfast & Brunch;American (Traditional)"
"59","e4tpnasQOzkoIegUg__aiw","""""Dinkey Donkey""""","","""""37636 N Tom Darlington Rd""""","Cave Creek","AZ","85331",33.8271931,-111.9237212,4.5,3,0,"Delis;Restaurants"
"60","WMj5Uj04pAqFxLMnJQcQqw","""""Panda Express""""","The Strip","""""3355 Las Vegas Blvd S""""","Las Vegas","NV","89109",36.1220839,-115.1680316,2.5,61,1,"Restaurants;Fast Food;Chinese"
"61","RGmBfqdFb0giLPG-SZbQUQ","""""Christy Candy Shop""""","Eastside","""""3542 S Maryland Pkwy""""","Las Vegas","NV","89169",36.124902,-115.13471,3,4,1,"Food;Restaurants;Specialty Food;Mexican;Candy Stores;Ice Cream & Frozen Yogurt"
"62","NoSj3hV8Rlz_gUsOL4_EjQ","""""Jack's Pub""""","","""""2416 W Sahara Ave""""","Las Vegas","NV","89102",36.1444404,-115.1744386,2.5,21,1,"Nightlife;Pubs;Restaurants;Irish;Bars"
"63","OlGImeovM5U14T5q5DnVSg","""""Big Wa""""","","""""990 E Riggs Rd""""","Chandler","AZ","85249",33.2195026,-111.8247181,3,4,1,"Chinese;Restaurants"
"64","0s0Xthk1JWrBUu74M81Xyg","""""The Good Egg - Val Vista""""","","""""1939 S Val Vista Dr""""","Mesa","AZ","85204",33.380479,-111.7533699,4,109,0,"American (New);Breakfast & Brunch;Restaurants"
"65","SlelFNxQz5PJbl6kkjI0OA","""""Makino""""","Southeast","""""9570 S Eastern Ave""""","Las Vegas","NV","89136",36.0151363,-115.1184733,3,7,0,"Restaurants;Japanese"
"66","sUMi2q41l4AzOsmJMRY8zQ","""""Del Mar Deli""""","Southeast","""""9777 Las Vegas Blvd S""""","Las Vegas","NV","89183",36.0115411891,-115.175896473,3.5,119,1,"Delis;Sandwiches;Restaurants;Breakfast & Brunch"
"67","_ewxwEwJM-IYfIYnKpQOZw","""""Mexicali Raspados""""","Eastside","""""4865 S Pecos Rd""""","Las Vegas","NV","89121",36.1006883,-115.1010833,4.5,47,1,"Restaurants;Ice Cream & Frozen Yogurt;Shaved Ice;Hot Dogs;Food"
"68","EEePiBwchl-TIBVcTdE0RA","""""McDonald's""""","The Strip","""""Excalibur Food Court, 3850 Las Vegas Blvd S""""","Las Vegas","NV","89119",36.098909,-115.175557,2,26,0,"Burgers;Fast Food;Restaurants"
"69","A029GQG1S3ekPit6cObcBA","""""Curry Garden""""","","""""1533 W Elliot Rd, Ste 101""""","Gilbert","AZ","85233",33.3492557,-111.8223441,4,109,1,"Restaurants;Indian;Buffets"
"70","JlIqG-00xE7ZpypSYq4uMQ","""""The Blacc Boxx""""","","""""3011 W Lake Mead Blvd""""","North Las Vegas","NV","89032",36.1969834,-115.1803758,4.5,9,1,"Sandwiches;Bakeries;Food;Chicken Wings;Cafes;Restaurants;Cajun/Creole"
"71","yIZROHhe6hfmmzLCtTIEJQ","""""Tootie's Place""""","Southeast","""""6601 Las Vegas Blvd S""""","Las Vegas","NV","89119",36.0680033,-115.1764458,2,3,1,"Restaurants;Fast Food;Creperies"
"72","KhWl4Mwhm_Oqq0zIIz-0wQ","""""Carnival World & Seafood Buffet""""","","""""3700 W Flamingo Rd""""","Las Vegas","NV","89103",36.117506,-115.188844,2.5,508,1,"Buffets;Seafood;Restaurants"
"73","v0byOL8VL6v6muGa1anxFA","""""The Hummus Factory""""","Westside","""""7875 W Sahara Ave, Ste 101""""","Las Vegas","NV","89117",36.1432041,-115.262866,4.5,214,1,"Event Planning & Services;Caterers;Burgers;Greek;Restaurants;Middle Eastern;Mediterranean"
"74","aNe8ofTYrealxqv7VtFTuw","""""Sierra Gold""""","Spring Valley","""""6515 S Jones Blvd""""","Las Vegas","NV","89118",36.0703249,-115.2249525,3.5,215,1,"American (New);Restaurants;Pubs;Nightlife;Sports Bars;Bars;Food;Pizza;Breweries"
"75","lHyTZFd8XXtvPwo-_qeTXA","""""Jersey Mike's Subs""""","Anthem","""""10520 South Eastern""""","Henderson","NV","89052",36.0005078,-115.105592,3.5,33,1,"Fast Food;Delis;Restaurants;Sandwiches"
"76","HQObn6hrV9WoeFObGfa2YQ","""""Mucha Lucha Taco Shop""""","","""""1530 S Val Vista Dr""""","Gilbert","AZ","85296",33.322367,-111.756204,4.5,199,1,"Restaurants;Tacos;Mexican"
"77","pidpBdWsOFfe7pWypBIoiQ","""""Miga Korean Bistro""""","","""""6112 W Flamingo Rd""""","Las Vegas","NV","89103",36.1146002,-115.2252211,4,42,1,"Hawaiian;Asian Fusion;Restaurants;Korean"
"78","PgJgpW4TKQ8IoALH2Yq-zA","""""Bayside Buffet at Mandalay Bay""""","The Strip","""""3950 S Las Vegas Blvd""""","Las Vegas","NV","89109",36.0912192601,-115.1758039,3,1033,1,"Arts & Entertainment;Restaurants;Buffets;American (Traditional);Casinos"
"79","VqF6Uky7SGfjWitgxrhlJA","""""Little Caesars Pizza""""","","""""6466 S Higley Rd""""","Gilbert","AZ","85298",33.2319416609,-111.721218153,4,9,1,"Pizza;Restaurants"
"80","w55IYhyLHUdsRlo_EvMmNQ","""""Table 89""""","Centennial","""""7160 North Durango Dr, Ste 110""""","Las Vegas","NV","89149",36.2914365,-115.2870159,3,76,0,"Salad;Sandwiches;Restaurants;American (New);Pizza"
"81","S8FDnhP4WKlRhJxSIkcxFg","""""Modern Round""""","","""""8320 W Mariners Way""""","Peoria","AZ","85382",33.6290590041,-112.238112817,3.5,130,1,"Arts & Entertainment;Virtual Reality Centers;Bars;Restaurants;Arcades;American (New);Food;Nightlife"
"82","EC7NrIHKk6i3US_XJlDWDA","""""Julio's Too""""","","""""7305 E Camelback Rd""""","Scottsdale","AZ","85251",33.5019605,-111.9230924,4,166,1,"Restaurants;Mexican"
"83","vhKUBKcOm8zOLxeS3XM9iA","""""Rosati's Pizza""""","","""""4010 E Bell Rd, Ste 101""""","Phoenix","AZ","85032",33.6418473,-111.9955708,3,67,1,"Restaurants;Pizza"
"84","frCxZS7lPhEnQRJ3UY6m7A","""""La Santisima""""","","""""1919 N 16th St""""","Phoenix","AZ","85006",33.469201,-112.047393,4,1694,1,"Vegetarian;Nightlife;Mexican;Bars;Vegan;Restaurants;Breakfast & Brunch;Cafes"
"85","7kO8bObVGFa-T3mj6PVYsg","""""Quiznos""""","Eastside","""""730 E Flamingo Rd""""","Las Vegas","NV","89119",36.114988,-115.147904,5,4,0,"Restaurants;Sandwiches"
"86","hJX8WoV-KbFVHojZ6i83Cg","""""Quiznos""""","Downtown","""""901 S Rancho Dr""""","Las Vegas","NV","89106",36.1604805,-115.17233,3.5,17,1,"Sandwiches;Fast Food;Restaurants;Delis"
"87","mI5UYpuYxjiumMLgANoa9A","""""Filiberto's Mexican Food""""","","""""3636 E. Baseline Rd""""","Mesa","AZ","85206",33.379467445,-111.752994061,2.5,70,1,"Mexican;Restaurants"
"88","gwYt_q3Ob7aQJIefIBsZiQ","""""Raising Cane's""""","Spring Valley","""""7135 S Rainbow Blvd""""","Las Vegas","NV","89118",36.058716,-115.2433571,4,264,1,"Fast Food;Chicken Shop;American (Traditional);Chicken Wings;Restaurants"
"89","-n1g9MdeG46v1-gzZ4ldvQ","""""Del Taco""""","","""""1811 W Craig Rd""""","North Las Vegas","NV","89032",36.239068,-115.167814,2,21,1,"Restaurants;Fast Food;Mexican"
"90","kiU9C58n7dgygdrpjOQXMQ","""""Los Jarochos Restaurant""""","Spring Valley","""""4811 S Rainbow Blvd""""","Las Vegas","NV","89147",36.101319,-115.244375,4,62,0,"Restaurants;Mexican"
"91","l0WauZ92kRg9bu2oxHj4TQ","""""Aiello's East Coast Italian""""","","""""777 E Thunderbird Rd, Ste 100""""","Phoenix","AZ","85022",33.607105,-112.063427,4,130,1,"Restaurants;Italian"
"92","M9fOuiesoUSaouOqNQ3U2w","""""Wong's Place""""","","""""1825 E Baseline Rd.""""","Tempe","AZ","85283",33.3779385,-111.9062779,4,149,0,"Chinese;Restaurants"
"93","bAdwf-n52f46-ZjlfJ1Hwg","""""Roberto's Taco Shop""""","Centennial","""""7251 W Azure Dr""""","Las Vegas","NV","89130",36.2730147,-115.2518622,2.5,26,1,"Fast Food;Mexican;Restaurants"
"94","ijg7qQCYnhUWBd5JUxbfvA","""""Roxy's Diner""""","The Strip","""""2000 Las Vegas Blvd S""""","Las Vegas","NV","89104",36.1477095179,-115.155205876,3,357,1,"Restaurants;Burgers;Breakfast & Brunch;Diners;Food;Desserts"
"95","crGdKSRKi25R2vorZ7skzg","""""Tortilleria San Diego""""","Downtown","""""235 N Eastern Ave""""","Las Vegas","NV","89101",36.1656584,-115.1165785,4.5,3,1,"Restaurants;Mexican"
"96","IqsQRoiVE535Z2JR-7xoWQ","""""Jack in the Box""""","","""""2145 E University Dr""""","Tempe","AZ","85281",33.4217141,-111.8937627,2,12,1,"Restaurants;Fast Food"
"97","3c6FN1VrCAV4s60PsWTCLA","""""Pho All Seasons""""","","""""1116 S Dobson Rd""""","Mesa","AZ","85202",33.3944997,-111.8748402,3,14,0,"Restaurants;Vietnamese"
"98","l_eFv9Q9Q8RBLqfJJXi9ug","""""Subway""""","University","""""1196 E Tropicana Ave""""","Las Vegas","NV","89119",36.1015578,-115.1374328,2,4,1,"Sandwiches;Restaurants;Fast Food"
"99","7yTtTjsZLi5Ef1vsr6ZPTw","""""Panera Bread""""","","""""9995 W Mcdowell Rd""""","Avondale","AZ","85392",33.4643757587,-112.274270654,2.5,75,1,"Bakeries;Soup;Sandwiches;Salad;Food;Restaurants"
"100","ZyIlYBpGnRsLeoEfXo-mxg","""""On The Green Sports Grill""""","","""""801 S Power Rd""""","Mesa","AZ","85206",33.3997189,-111.6841436,3.5,36,1,"American (New);Restaurants"
"101","ceVWEkif38SMGNcBR55PNA","""""Tay-Yo Sushi Seafood Buffet""""","Southeast","""""9570 S Eastern Ave""""","Henderson","NV","89074",36.0151363,-115.1184733,2,4,0,"Buffets;Restaurants;Seafood"
"102","7Zmxle5A6XTZACIHgiC98Q","""""Kashman's Place""""","","""""23425 N Scottsdale Rd, Ste 6""""","Scottsdale","AZ","85250",33.519588,-111.909524,3.5,21,0,"Bagels;Delis;Restaurants;Food"
"103","ZPZYNq9fNu2GyeCSz7U-fg","""""Five Star Tavern""""","Sunrise","""""4220 E Charleston Blvd""""","Las Vegas","NV","89104",36.1590151,-115.0850773,3,6,1,"Bars;Casinos;American (New);Arts & Entertainment;Restaurants;Nightlife"
"104","jf_h_Y8iNaduXJvpgLRPng","""""Native Grill & Wings""""","","""""2110 S Gilbert Rd""""","Chandler","AZ","85286",33.2763316444,-111.790289394,3,195,1,"Sports Bars;American (New);Chicken Wings;Bars;Restaurants;Nightlife"
"105","Yar8jR2a1XA2JuRKfmNDcw","""""Palms Restaurant""""","","""""3502 West Greenway Rd""""","Phoenix","AZ","85053",33.6259523,-112.1343378,5,3,1,"Restaurants;Greek;Mediterranean;Food;Bakeries"
"106","OsuBqr2L0-5W8LGAsg-p8g","""""Micky's Hot Dogs""""","","""""108 W Broadway Rd""""","Mesa","AZ","85210",33.4080371,-111.8346059,4,115,1,"Fast Food;Restaurants;Mexican;Hot Dogs"
"107","AYe8rS3qBPuLHSwNOZSbcA","""""Sushi Loca""""","South Summerlin","""""10965 Lavender Hill Dr""""","Las Vegas","NV","89135",36.1450494098,-115.332824471,3,229,1,"Food;Sushi Bars;Restaurants"
"108","aiX_WP7NKPTdF9CfI-M-wg","""""Culinary Dropout""""","","""""149 S Farmer""""","Tempe","AZ","85281",33.428533,-111.943955,4,984,1,"American (New);Restaurants"
"109","5_MrPFw9E0cMJ1Q0DJFZOQ","""""Tilted Kilt Pub & Eatery""""","The Strip","""""3545 Las Vegas Blvd, Unit L-26""""","Las Vegas","NV","89109",36.1173843209,-115.170322225,3,288,1,"Pubs;Sports Bars;Bars;Restaurants;Nightlife;American (Traditional)"
"110","KPsu_1Q9XYRKWs_ZBTtlTg","""""Sky Lounge""""","The Strip","""""3745 S Las Vegas Blvd""""","Las Vegas","NV","89109",36.1065949,-115.1709543,2.5,6,1,"Bars;Pizza;Lounges;Restaurants;Nightlife"
"111","ObV7olsEsNYjuMGNJ75jNw","""""Vaqueros Carne Asada""""","","""""2602 W Southern Ave""""","Tempe","AZ","85282",33.3931502,-111.9762132,3.5,17,1,"Mexican;Restaurants"
"112","tSbs8i_9Hlaommupjgn63Q","""""Panda Express""""","Sunrise","""""4416 E Bonanza Blvd""""","Las Vegas","NV","89110",36.1739844,-115.0797206,3,14,1,"Chinese;Fast Food;Restaurants"
"113","qVQGfHphxolps16v6g5X-g","""""Belfiore's Italian Ristorante""""","","""""15842 N Cave Creek Rd""""","Phoenix","AZ","85032",33.6308568,-112.0309244,3.5,67,0,"Pizza;Italian;Food;Restaurants;Bakeries"
"114","RFj91Y9mk2d824QyD9JTzA","""""Firehouse Subs""""","","""""1616 S Stapely Dr, Ste 101""""","Mesa","AZ","85204",33.3848304749,-111.806755066,3.5,33,1,"Fast Food;Delis;Sandwiches;Restaurants"
"115","wwEg_6bHfTrOpn_bygIQZg","""""Little Ceasars""""","","""""4388 E Craig Rd, Ste 135""""","Las Vegas","NV","89115",36.2412164566,-115.077913174,2,20,1,"Restaurants;Pizza"
"116","oIoq6WQbyRpPZClMkHQNlQ","""""Delicia's Latina's""""","Downtown","""""""""","Las Vegas","NV","",36.1600037195,-115.118577965,3,4,1,"Restaurants;Cuban;Mexican;Food;Food Trucks"
"117","eoHkKySohgtDqWtHBqJ9xw","""""Lucky China""""","","""""180 S Stephanie St""""","Henderson","NV","89074",36.0229458,-115.0465515,3,3,1,"Chinese;Restaurants"
"118","Q9zcPQit3OMWoNRLLK7MQg","""""Chick-fil-A""""","","""""7000 E Mayo Blvd""""","Phoenix","AZ","85054",33.65563,-111.927745,3.5,75,1,"Event Planning & Services;Caterers;Restaurants;Fast Food"
"119","88ntJxZNxRIY8W_hji9pzg","""""Szechwan Palace""""","","""""2386 N Alma School Rd""""","Chandler","AZ","85224",33.3401985168,-111.859687805,3.5,86,0,"Szechuan;Restaurants;Chinese"
"120","SSCH4Z2gw-hh2KZy7aH4qw","""""Worth Takeaway""""","","""""218 W Main St""""","Mesa","AZ","85201",33.4154308,-111.8374321,5,336,1,"Breakfast & Brunch;Sandwiches;American (New);American (Traditional);Restaurants"
"121","OFw59czUoeeosFMKfRawmg","""""Gordon Biersch Brewery Restaurant""""","Eastside","""""3987 Paradise Rd""""","Las Vegas","NV","89169",36.1170027,-115.1552488,3.5,352,1,"Nightlife;Breweries;Restaurants;Food;American (New);Bars"
"122","Jd2NUZeVeyWi1tTNKXMt1Q","""""Sí Señor Restaurant""""","","""""600 N Alma School Rd""""","Chandler","AZ","85224",33.3136751,-111.8596581,4,398,1,"Mexican;Restaurants"
"123","9CNObWIk7w8poCo5IAtgmw","""""Raising Cane's""""","","""""3535 W Tropicana Ave""""","Las Vegas","NV","89103",36.1005126302,-115.186880296,4,55,1,"Restaurants;Chicken Wings;Food;Chicken Shop;Fast Food;American (Traditional)"
"124","TolwZ3L28or4E8SVTZUf6Q","""""Spinato's Pizza""""","","""""1219 E Glendale Ave, Ste 14""""","Phoenix","AZ","85020",33.5378713137,-112.055160999,4,157,0,"Restaurants;Pizza;Sandwiches;Italian"
"125","LcmTZeZAE4cb8wFel8JGZg","""""Jimmy John's""""","","""""1120 N Estrella Pkwy, Ste C104""""","Goodyear","AZ","85338",33.4589806,-112.3930937,2.5,11,1,"Food Delivery Services;Food;Restaurants;Sandwiches"
"126","7KkgMcbVaetryW1wwpzvvA","""""Cafe Rio""""","Northwest","""""5765 Centennial Center Blvd""""","Las Vegas","NV","89149",36.26483,-115.257743,3.5,153,1,"Restaurants;Mexican"
"127","TdKJjgiXMPXDamGK-IwFZg","""""Freddy's Frozen Custard & Steakburgers""""","","""""4929 W Bell Rd""""","Glendale","AZ","85308",33.6387179265,-112.167251549,4,191,1,"Diners;Ice Cream & Frozen Yogurt;Food;Restaurants;Burgers;Fast Food"
"128","3w66rzZq_rjA1kSmVt5Hew","""""Subway""""","","""""3230 E Union Hills Dr, Ste B-125, Union Centre Shoppes""""","Phoenix","AZ","85050",33.6556530143,-112.012032084,3.5,6,1,"Sandwiches;Restaurants;Fast Food"
"129","uIbZjRRqR1OR-t2NBCa1Wg","""""Pizza Hut""""","","""""5255 S. Decatur Blvd., #113""""","Las Vegas","NV","89118",36.0944572,-115.2088673,2.5,32,1,"Pizza;Italian;Restaurants"
"130","woP-omtF0PobX4JxXpZa7Q","""""Ronnie's Cafe""""","","""""4323 W Cactus Rd, Ste 3""""","Glendale","AZ","85304",33.5956471,-112.1521774,4,278,1,"Restaurants;Breakfast & Brunch"
"131","VtQxGoCzAFSzCb1JSFV2bQ","""""Subway""""","","""""130 E University Dr, Ste C""""","Tempe","AZ","85281",33.4219428,-111.9415492,3.5,5,0,"Sandwiches;Fast Food;Restaurants"
"132","9KzLFQrA_tSBGVDNeZrB8Q","""""Nick and Willy's Take & Bake""""","","""""13216 N 7th St""""","Phoenix","AZ","85022",33.6060548,-112.0663997,3.5,3,0,"Restaurants;Pizza"
"133","6nxVZ1s0mRhyRAdRymYAsQ","""""Ichi Ban Japanese Restaurant""""","","""""9897 W McDowell Rd""""","Tolleson","AZ","85353",33.464277,-112.269802,2,60,0,"Restaurants;Steakhouses;Japanese;Sushi Bars"
"134","M7N_LeUEcQTfzaeCgJL5mg","""""Spanish Fly""""","","""""4341 N 75th St""""","Scottsdale","AZ","85251",33.4997252,-111.9197955,3.5,55,0,"Restaurants;Mexican;Bars;Nightlife"
"135","YQFcxE9UXrKc-QuTUu7twQ","""""Loco Patron""""","","""""4228 N Scottsdale Rd""""","Scottsdale","AZ","85251",33.4977693,-111.9264149,3.5,327,1,"Sports Bars;Mexican;Restaurants;Nightlife;Bars"
"136","JlQsOCa-UPw_Gu1MG7jmig","""""Pizza Hut""""","","""""14763 W Cactus Rd, Ste 120""""","Surprise","AZ","85379",33.5941776,-112.3780084,1.5,18,1,"Restaurants;Chicken Wings;Pizza;Italian"
"137","IyVdd_IqwUtzQDTxw2W9qw","""""Saddle Ranch Chop House""""","","""""9375 W Coyotes Blvd""""","Glendale","AZ","85305",33.5329519271,-112.260761889,2.5,477,1,"Steakhouses;Restaurants;Nightlife;Bars"
"138","G54fcIaoI89tc6X285suRA","""""DD'Coffee Shop""""","Spring Valley","""""4255 S Durango Dr""""","Las Vegas","NV","89147",36.1121084,-115.2793898,3.5,39,0,"American (New);Music Venues;Burgers;Persian/Iranian;Nightlife;Arts & Entertainment;Mediterranean;Coffee & Tea;Bars;Restaurants;Breakfast & Brunch;Cocktail Bars;Food"
"139","dhaSDuAoZI0K3hp8aU7otQ","""""Dolce Vino Wine Bar Italian Cuisine""""","","""""4935 W Glendale Ave, Ste 17""""","Glendale","AZ","85301",33.5379277,-112.1665028,4.5,36,1,"Italian;Bars;Restaurants;Nightlife;Wine Bars"
"140","Ld2hhA3q3cdkptwS1fsYEg","""""Yogi's Grill""""","","""""2450 W Happy Valley Rd""""","Phoenix","AZ","85085",33.714505545,-112.112238407,4,80,1,"Salad;Noodles;Sushi Bars;Restaurants;Japanese"
"141","ddMOhA5QoKByjaHGK8r7xA","""""Legends Sports Club""""","","""""8378 W Thunderbird Rd""""","Peoria","AZ","85381",33.6114217,-112.2395205,2,25,1,"Restaurants;Bars;American (Traditional);Chicken Wings;Sports Bars;Nightlife;American (New);Beer Bar;Pubs"
"142","_9VQUKCkYWHfUTnxbn4O_A","""""Tom's BBQ""""","","""""1140 S Country Club Dr""""","Mesa","AZ","85210",33.3937008292,-111.841277964,3.5,88,1,"Event Planning & Services;Barbeque;Caterers;Restaurants"
"143","GisIy4El3OAxJwnkovgv_A","""""Hot Dog on a Stick""""","Westside","""""4300 Meadows Ln""""","Las Vegas","NV","89107",36.1725319,-115.197258,3,20,1,"Hot Dogs;Restaurants"
"144","hL3LFrwR1UQ-d0CcYF73Sg","""""Royal Taj""""","","""""6245 W Chandler Blvd, Ste 1""""","Chandler","AZ","85226",33.3048389,-111.9490143,3.5,8,0,"Indian;Restaurants"
"145","r0byBoB7y_IH8uicEvyCqQ","""""Rack Shack BBQ""""","","""""1019 E Indian School Rd""""","Phoenix","AZ","85014",33.4942339,-112.0597411,3,5,1,"Restaurants;Barbeque"
"146","pyqnGlIfP9Zw8LLxBjyAiA","""""Nobu""""","The Strip","""""3570 Las Vegas Blvd S""""","Las Vegas","NV","89109",36.1167433322,-115.175368225,4,840,1,"Sushi Bars;Japanese;Seafood;Restaurants"
"147","p2OOk46G_AOO0nCWl-eVlg","""""Pei Wei""""","","""""20022 N 67th Ave, Ste 100""""","Glendale","AZ","85308",33.666586,-112.203627,3,125,1,"Gluten-Free;Asian Fusion;Chinese;Restaurants;Fast Food"
"148","lWrmZLPvfIFq-ufyJTeNiQ","""""Fat Boys Pizza""""","","""""4040 S Arizona Ave""""","Chandler","AZ","85248",33.2464267,-111.8428351,3.5,15,0,"Restaurants;Pizza"
"149","tro-hrljuY1cUAVFYauTlQ","""""In-N-Out Burger""""","University","""""4705 S Maryland Pkwy""""","Las Vegas","NV","89119",36.1041636,-115.1375999,4.5,275,1,"Burgers;Restaurants;Fast Food"
"150","BVYvfJiVcQTl9B311z518w","""""Peter Piper Pizza""""","","""""3403 N 7th Ave""""","Phoenix","AZ","85013",33.4884218,-112.0823702,3.5,27,1,"Chicken Wings;Buffets;Restaurants;Pizza"
"151","_QvGAqMmrUIlxpby2Ul5Dg","""""Dona Maria Tamales Restaurant""""","Northwest","""""3205 N Tenaya Way""""","Las Vegas","NV","89129",36.2191460556,-115.251756703,3.5,242,1,"Food;Desserts;Mexican;Seafood;Restaurants"
"152","hzMhB8ft6ewaxbZnEcy5pw","""""The Casual Pint""""","","""""1095 West Queen Creek Rd, Ste 8""""","Chandler","AZ","85248",33.2613947,-111.8613829,4,68,1,"Bars;Nightlife;Pubs;Beer Bar;American (Traditional);Restaurants;Beer;Wine & Spirits;Food"
"153","YYRP-b61hjDljhWBfmUlDg","""""KFC""""","","""""4924 Boulder Hwy""""","Las Vegas","NV","89121",36.1139,-115.066,2,19,1,"Restaurants;Fast Food;Chicken Wings"
"154","BWsCjBVMR289vtojIz-gWw","""""Cafe Rio""""","","""""1939 E Baseline Rd""""","Gilbert","AZ","85233",33.377308,-111.789086,3,242,1,"Desserts;Food;Mexican;Restaurants;Salad"
"155","9_HgBRUXUg_vKjTT-GSulA","""""Golden Hawaiian BBQ""""","","""""1720 W Southern Ave, Ste C3""""","Mesa","AZ","85202",33.3938026428,-111.868804932,4,84,1,"Hawaiian;Asian Fusion;Restaurants;Barbeque"
"156","aRRV_ZbRiD65SIi7vAY-iA","""""Zest of India""""","","""""3202 E Greenway Rd, Ste 1617""""","Phoenix","AZ","85032",33.6264184,-112.0132464,1,3,1,"Restaurants;Indian;Pakistani"
"157","BG8lvZoPTrPJqcvTh-ytzg","""""The Range Steakhouse""""","The Strip","""""Harrahs Las Vegas, 3475 S Las Vegas Blvd""""","Las Vegas","NV","89152",36.1183787,-115.1726202,4,105,0,"Restaurants;Seafood;Steakhouses"
"158","JKTMgelIQ-VHn7SL5nyiWA","""""Buddha Thai Bistro""""","Southeast","""""9400 S Eastern Ave, Ste 106B""""","Las Vegas","NV","89123",36.0182263,-115.1179256,4.5,86,1,"Chinese;Asian Fusion;Thai;Restaurants"
"159","RMyK2LpfFDty75HE94XN0Q","""""Positively Frosted""""","","""""7510 E Thomas Rd""""","Scottsdale","AZ","85251",33.4816874,-111.9193476,5,6,1,"Desserts;Restaurants;Cupcakes;Vegan;Bakeries;Food Delivery Services;Food;Custom Cakes"
"160","yX0pOWG_Be9TjGnm0aihVA","""""Modern  Grove""""","","""""15530 N Tatum Blvd, Ste 160""""","Phoenix","AZ","85032",33.6274599302,-111.978455571,3,327,0,"Restaurants;Breakfast & Brunch;Comfort Food;Beer;Wine & Spirits;Burgers;Vegetarian;American (New);Food"
"161","C4XsC2ZBtsl1EgjdVue3yA","""""Pinoy Pinay Filipino Restaurant""""","Downtown","""""1217 E Sahara Ave""""","Las Vegas","NV","89104",36.145433,-115.1360328,3.5,114,0,"Filipino;Asian Fusion;Restaurants"
"162","WaTXG26xbOGffSscvyr-wQ","""""Spasso Pizza & Mozzarella Bar""""","","""""4743 N 20th St, Ste A22A""""","Phoenix","AZ","85016",33.4483771,-112.0740373,3.5,38,0,"Pizza;Italian;Restaurants"
"163","4Pb7SlTK89uSdqOwMNM35A","""""Tequila Taqueria""""","The Strip","""""3645 Las Vegas Blvd S""""","Las Vegas","NV","89109",36.11386,-115.168798,3,187,1,"Burgers;Bars;Restaurants;Mexican;Nightlife;Tex-Mex;Cocktail Bars;Beer Bar"
"164","MatGnwADyILP8utonlTWDg","""""Dave & Buster's""""","","""""9460 W Hanna Ln""""","Glendale","AZ","85305",33.5349425,-112.261923,2,180,1,"Restaurants;Sports Bars;American (Traditional);Nightlife;Arts & Entertainment;Bars;Arcades;Eatertainment"
"165","FGaaHr_krwaPGlD0mHPe4Q","""""Matta's Grill and Cantina""""","","""""1033 N Dobson Rd, Ste 101""""","Mesa","AZ","85201",33.4351659963,-111.866054535,3,148,1,"Restaurants;Mexican"
"166","ahfAFuFHO9tfFkoBIkVdmg","""""Zabari Mediterranean Grill""""","","""""3831 E Thunderbird Rd, Ste 3""""","Phoenix","AZ","85032",33.6113539,-111.9985593,4.5,95,1,"Middle Eastern;Mediterranean;Restaurants"
"167","J121PGT4oi5AqVbtMoEfVw","""""La Parrilla""""","Eastside","""""4161 S Eastern Ave""""","Las Vegas","NV","89119",36.1130431,-115.1194493,3.5,6,1,"Restaurants;Mexican"
"168","VmSrPPO2WXmOKjUW7pDGsQ","""""Mega Tom's Burgers""""","","""""2893 W Lake Mead Blvd""""","North Las Vegas","NV","89106",36.1971122,-115.1785325,3,133,1,"Breakfast & Brunch;Diners;Burgers;Restaurants"
"169","5F69VFIk-l3THUZX1qeYSg","""""Applebee's Neighborhood Grill & Bar""""","","""""5880 W Peoria Ave""""","Glendale","AZ","85302",33.5824983,-112.1857333,2,70,1,"American (Traditional);Sports Bars;Bars;Nightlife;Steakhouses;Restaurants;Burgers"
"170","Ycqaz47uwQj6IbOLxlfszA","""""Sbarro Italian Eatery""""","","""""7700 W Arrowhead Towne Ctr""""","Glendale","AZ","85308",33.6420894,-112.2254067,2,9,1,"Pizza;Salad;Italian;Restaurants"
"171","LpGCzgAKNSpzDNEUMVVtZA","""""Grimaldi's Pizzeria""""","Spring Valley","""""7155 S Rainbow Blvd, Ste 125""""","Las Vegas","NV","89118",36.0583338569,-115.243319197,4,459,1,"Pizza;Restaurants"
"172","iFCz-xI7CV98fcaB4Chh3g","""""The Black Sheep""""","Spring Valley","""""8680 W Warm Springs Rd""""","Las Vegas","NV","89148",36.0560801,-115.2808739,4.5,178,1,"Cocktail Bars;Nightlife;Restaurants;Wine Bars;American (New);Bars"
"173","tyCOrWRRqrg6sym4lKkVZg","""""Huerta's Bakery""""","Eastside","""""1165-1185 E Desert Inn Rd""""","Las Vegas","NV","89109",36.1296956,-115.1372555,3,4,0,"Desserts;Bakeries;Restaurants;Mexican;Food"
"174","kplbTXzOaUJqP2BwanoYjw","""""Dino's Ristorante""""","","""""15842 N Cave Creek Rd""""","Phoenix","AZ","85032",33.630768475,-112.03124173,4.5,38,0,"Pizza;Food;Restaurants;Italian;Bakeries"
"175","yhcgONZE_flFHrTEM60o3g","""""Barro's Pizza""""","","""""1066 N Power Rd""""","Mesa","AZ","85205",33.4359141763,-111.684863082,4,10,0,"Pizza;Restaurants"
"176","2GfKCR3S8I2m0iiyEd3sKA","""""Blue Agave""""","","""""4321 W Flamingo Rd""""","Las Vegas","NV","89103",36.114539,-115.195684,1.5,5,0,"Restaurants;Mexican;Seafood"
"177","UrX0UEejKhHzk158VxlQzA","""""Arizona Polish Festival""""","","""""2828 W Country Gables Dr""""","Phoenix","AZ","85053",33.6195640564,-112.119850159,4,8,1,"Restaurants;Arts & Entertainment;Festivals;Polish"
"178","82YGtjc5KKikNiqBZ33qzw","""""Kyara Japanese Tapas""""","Spring Valley","""""6555 S Jones Blvd, Ste 120""""","Las Vegas","NV","89118",36.0698514,-115.2249867,4,428,1,"Food;Restaurants;Japanese;Tapas Bars;Desserts"
"179","zAhv5Pg3vUB_kzdCj0KtDg","""""The Chicken Shack""""","Spring Valley","""""4950 S. Rainbow Blvd, Ste 130""""","Las Vegas","NV","89118",36.0985966084,-115.242525861,3.5,33,1,"Restaurants;Fast Food;Chicken Wings;Chicken Shop"
"180","etylBefPKEMjm9nS9c1qiw","""""Port of Subs""""","","""""1342 W Warner Rd""""","Tempe","AZ","85284",33.3350123,-111.9619516,2.5,36,1,"Delis;Sandwiches;Restaurants"
"181","TAoN9nsibXOxsOnnG7Kd_g","""""Riazzi's Italian Garden""""","","""""2700 S Mill Ave""""","Tempe","AZ","85282",33.3998762,-111.9400825,3.5,141,0,"Italian;Restaurants"
"182","DHUAQ4pzH9KKzGZDm1jZLg","""""Krispy Kreme Doughnuts""""","Chinatown","""""7015 W Spring Mountain Rd""""","Las Vegas","NV","89103",36.1252910295,-115.245750385,3,133,1,"Donuts;Cafes;Restaurants;Coffee & Tea;Food"
"183","gKqzpzg2MmINROrgWqalOg","""""Bill Johnsons Big Apple""""","","""""16810 N 19th Ave""""","Phoenix","AZ","85003",33.6386869,-112.1000291,2.5,52,0,"American (Traditional);Restaurants;Barbeque"
"184","o3Wj6ohtPnvOJ9l0d_FT9A","""""Golden Star Chinese Food Restaurant""""","","""""10050 W Bell Rd""""","Sun City","AZ","85351",33.6396367,-112.2758645,2.5,5,0,"Restaurants;Chinese"
"185","px5RbIZm3rxRzi-g2f83KQ","""""Burger King""""","","""""6402 S Rural Rd""""","Tempe","AZ","85283",33.3631806,-111.9291133,2,24,1,"Restaurants;Burgers;Fast Food"
"186","kMGfuOZeBDNQJ4_pBjE26Q","""""Taqueria Del Paisano""""","","""""3603 N Las Vegas Blvd""""","Las Vegas","NV","89115",36.2266667168,-115.081340857,4.5,6,1,"Restaurants;Mexican"
"187","RSuT0SK4XpsIAZtdP7Lf3w","""""Pedro's Mexican Restaurant""""","","""""4938 W Glendale Ave""""","Glendale","AZ","85301",33.5387191,-112.1662867,4,170,1,"Salad;Restaurants;Mexican;Tacos;Soup"
"188","VEcI0bURmJtf0B9UPSEMDA","""""Millano Pizzeria""""","","""""4850 W Flamingo Rd, Ste 6""""","Las Vegas","NV","89103",36.1165039,-115.2068875,4,12,0,"Pizza;Restaurants"
"189","luf0E5FPY-hv-uceL8QtBA","""""Fat Bar""""","The Strip","""""3763 Las Vegas Blvd S""""","Las Vegas","NV","89109",36.1052677,-115.1724964,4,23,1,"American (New);Sports Bars;American (Traditional);Nightlife;Bars;Restaurants"
"190","mS7lIPlmNqM9QMJB70HgYA","""""Starbucks""""","","""""2001 E Lake Mead Blvd, Ste 105""""","North Las Vegas","NV","89030",36.195186,-115.1204362,3.5,34,1,"Restaurants;Food;Coffee & Tea"
"191","Rv1IiQaIIDunqzS8dSvHCw","""""Plumeria Thai Cafe""""","Northwest","""""6710 W Cheyenne Ave""""","Las Vegas","NV","89108",36.2192233223,-115.242703788,4.5,218,1,"Asian Fusion;Restaurants;Thai;Hawaiian"
"192","FT99KLluYZA7vFZEIypIwQ","""""Fracos & Froccs""""","Southeast","""""6593 Las Vegas Blvd S, Unit B155""""","Las Vegas","NV","89119",36.0682497116,-115.177230835,3.5,11,0,"Food;Desserts;Restaurants;American (New)"
"193","Ndozr_--5-wzyDJ2T7TfpQ","""""A & J Chicago Style Bar-B-Q""""","","""""6102 N 16th St""""","Phoenix","AZ","85016",33.5258838,-112.047946,3,9,0,"Barbeque;Restaurants"
"194","TwriSG0Gq9vr7n_Re1OR1A","""""The Nile Cafe""""","","""""7051 E McDowell Rd""""","Scottsdale","AZ","85257",33.4656052,-111.9292957,4,14,0,"Mediterranean;Restaurants"
"195","tZW4NLpEYinu4mIxdKj0Pw","""""The Rose Grill""""","Downtown","""""3328 E Charleston Blvd""""","Las Vegas","NV","89104",36.1585755,-115.0996395,3.5,3,1,"Restaurants;Burgers;Salad;Pizza"
"196","IT0IODInyhKbG4a_ka71MQ","""""Oregano's Pizza Bistro""""","","""""37645 Cave Creek Rd""""","Cave Creek","AZ","85331",33.8278117684,-111.9547806,3.5,190,1,"Pizza;Italian;Restaurants"
"197","gPzDw2Ms6JZRZhA2tyxItw","""""Burger King""""","Eastside","""""3355 S Maryland Pkwy""""","Las Vegas","NV","89169",36.1281733,-115.1374956,2.5,11,1,"Fast Food;Burgers;Restaurants"
"198","GGvjkKM74UnOh2NyvwTLZQ","""""Jjanga Fusion Pocha""""","Westside","""""6145 W Sahara Ave, St 1""""","Las Vegas","NV","89146",36.1429443,-115.2265555,4.5,16,0,"Bars;Restaurants;Nightlife;Pizza;Soup;Karaoke;Asian Fusion"
"199","MXpCVzm1V5OH05KO6n7ntA","""""The Corndog Company LV""""","Centennial","""""5720 Centennial Center Blvd""""","Las Vegas","NV","89149",36.2657011,-115.2599646,5,7,1,"Food Trucks;Restaurants;Hot Dogs;Food;Street Vendors"
"200","YjlCXwWr9xx6TnHmTFCKGQ","""""P.F. Chang's""""","","""""6610 E Superstition Springs Blvd""""","Mesa","AZ","85206",33.3855705916,-111.689916551,3.5,113,1,"Gluten-Free;Restaurants;Chinese;Food;Asian Fusion"
"201","qtZ50TWkfNS2UtLLuD1m8Q","""""Freddy's Frozen Custard & Steakburgers""""","Westside","""""4675 W Charleston Blvd""""","Las Vegas","NV","89102",36.1586242,-115.2047571,4.5,113,1,"Hot Dogs;Burgers;Fast Food;Ice Cream & Frozen Yogurt;Restaurants;Food"
"202","NihPkBRdA1AixuE_98tIrg","""""Port of Subs""""","","""""635 E Indian School Rd, Ste 102""""","Phoenix","AZ","85012",33.4943244,-112.0654164,3,31,1,"Delis;Sandwiches;Restaurants"
"203","E0lP3PXXNae84q_z9MtDMw","""""Tastings Wine Bar and Bistro""""","","""""1809 N Dysart Rd""""","Avondale","AZ","85323",33.4680145,-112.3407907,2,5,0,"Nightlife;Bars;Restaurants;Wine Bars"
"204","2oCM63whZH_IW6kzxciysg","""""Taqueria El Pastorcito 2""""","Westside","""""4820 W Charleston Blvd""""","Las Vegas","NV","89146",36.1594184858,-115.207342639,3.5,3,1,"Mexican;Food Trucks;Street Vendors;Restaurants;Food"
"205","V1EdIokE0YYN__dNYfXRdA","""""Pokeman""""","Chinatown","""""3735 Spring Mountain Rd, Ste 206""""","Las Vegas","NV","89102",36.12613,-115.1891408,4,171,1,"Hawaiian;Food;Japanese;Restaurants;Sushi Bars;Poke"
"206","LV-oONzEA22qiBEFK1sckA","""""American Fish""""","The Strip","""""Aria Resort and Casino, 3746 Las Vegas Blvd S""""","Las Vegas","NV","89109",36.106788606,-115.173207521,3.5,288,0,"Restaurants;Seafood;American (New)"
"207","9K1A2EqSq5dw51K7kEljpw","""""Pizza Hut""""","","""""6355 N. Commerce, #101""""","North Las Vegas","NV","89031",36.2745259,-115.1440982,2,45,1,"Restaurants;Fast Food;Pizza"
"208","RQdKieW9hqg898d_S2WwRA","""""Yogis Grill""""","","""""1645 E Camelback""""","Phoenix","AZ","85016",33.5076828,-112.0459694,3.5,87,1,"Japanese;Restaurants"
"209","vuqHcBCbxH36hCFsZ1W-0Q","""""Mulligan's Pub""""","Southeast","""""6471 Boulder Hwy""""","Las Vegas","NV","89122",36.084130145,-115.031260665,3.5,47,1,"Nightlife;Irish;Bars;Restaurants;Irish Pub;Pubs"
"210","HyzHidtQXC4JIULtSbk3NA","""""Bowl of Greens""""","","""""16447 N Scottsdale Rd, Ste 101""""","Scottsdale","AZ","85254",33.6354649,-111.9237255,4,99,1,"Restaurants;Food;Salad;Juice Bars & Smoothies;Middle Eastern"
"211","1hrX1vHaUgllWH6i876oAw","""""Mariachi Estrellas Del Pacífico""""","","""""""""","Phoenix","AZ","85001",33.4499672,-112.0702225,5,4,1,"Arts & Entertainment;Musicians;Restaurants;Performing Arts;Mexican;Event Planning & Services"
"212","HxWDCU-kKido3ErM31msGQ","""""First Watch - Breakfast, Brunch & Lunch""""","","""""16455 N Scottsdale Rd, Ste 107""""","Scottsdale","AZ","85254",33.6353409418,-111.92254378,4,229,1,"American (Traditional);Breakfast & Brunch;Restaurants;Cafes"
"213","C2T7ecxqsVu99PhSqT3c3g","""""PDQ""""","","""""3737 W Craig Rd""""","North Las Vegas","NV","89032",36.2389331706,-115.189941526,4.5,257,1,"Sandwiches;Fast Food;Restaurants;Salad;Chicken Shop"
"214","cTJjTKz2huGZ-ElScC2pSw","""""Windsor""""","","""""5223 N Central Ave""""","Phoenix","AZ","85012",33.513575,-112.073381,4,977,1,"American (New);Bars;Food;Pubs;Nightlife;Restaurants;Beer;Wine & Spirits;Breakfast & Brunch"
"215","0DQ31asd4IeOTI7dkZ3OXQ","""""Sea Harbour Seafood Restaurant""""","Westside","""""6600 W Charleston Blvd Ste 118""""","Las Vegas","NV","89146",36.1598136,-115.2407393,3,3,0,"Chinese;Restaurants"
"216","Q47FjaMLjI3v6yo-PHIebQ","""""Cafe Roma""""","","""""110 N Central Ave""""","Phoenix","AZ","85004",33.449568,-112.0740163,3,5,1,"Restaurants;Italian"
"217","wPgp3oddFUzpGrQc__HYhg","""""Denny's""""","","""""3971 S Gilbert Rd""""","Gilbert","AZ","85297",33.2778948186,-111.788683534,2.5,81,1,"Restaurants;Breakfast & Brunch;American (Traditional);Diners"
"218","blUgghIdsUG7pNqxCphk9w","""""Chang Lee Restaurant""""","","""""13600 N 99th Ave""""","Sun City","AZ","85351",33.6074409,-112.2690931,3,32,1,"Food;Asian Fusion;Restaurants;Food Delivery Services;Chinese"
"219","4KZRFxciaKfTD7qbS55b7g","""""Fabio On Fire""""","","""""8275 W Lake Pleasant Pkwy, Ste 101""""","Peoria","AZ","85382",33.6708151372,-112.240358657,4.5,132,1,"Italian;Pizza;Food;Food Trucks;Restaurants"
"220","tylsscXmLq03-DzGI36bIA","""""Squaw Peak Cafe""""","","""""2333 E Thomas Rd""""","Phoenix","AZ","85016",33.4791900432,-112.031487823,3,6,1,"Restaurants;Pizza;Salad;Sandwiches"
"221","OSs8P5K6oAuku247u-6jvQ","""""I Roll Thai Ice Cream""""","","""""1949 W Ray Rd, Ste 27""""","Chandler","AZ","85224",33.3194292,-111.8744415,4.5,43,1,"Restaurants;Food;Thai;Ice Cream & Frozen Yogurt;Desserts"
"222","mDtlBsfTUPDuASvUcKWSbw","""""L&L Hawaiian Barbecue""""","","""""6118 W Flamingo Rd""""","Las Vegas","NV","89103",36.1159009,-115.2263204,4,65,1,"Barbeque;Hawaiian;Restaurants"
"223","qLO9ES3-mKJrodFO1mzgOg","""""Taco Bell""""","","""""1491 W Horizon Ridge Pkwy""""","Henderson","NV","89012",36.0195785129,-115.050903269,3,31,1,"Restaurants;Tex-Mex;Mexican;Fast Food"
"224","L7os7OGSQ2_evJRLvQg9dw","""""Wendy's""""","","""""2346 E McDowell Rd""""","Phoenix","AZ","85006",33.4660683,-112.0306582,3.5,11,1,"Burgers;Restaurants;Fast Food"
"225","16Fplxu-OwVmTEFxQAUP4g","""""TENDER Steak & Seafood""""","The Strip","""""3900 Las Vegas Blvd S""""","Las Vegas","NV","89109",36.0953556397,-115.176614273,3.5,421,1,"Nightlife;Restaurants;Steakhouses;Bars;American (Traditional)"
"226","vJaL_UtIRkpmczGrwLSs1Q","""""Burger 21""""","","""""2855 W Ray Rd""""","Chandler","AZ","85224",33.3199737951,-111.890194592,3.5,122,0,"Burgers;Restaurants"
"227","1k7CVCUJoE4ZJAtGpGGUUA","""""Subway""""","","""""3950 W Lake Mead Blvd""""","North Las Vegas","NV","89032",36.2010561,-115.1917358,3,3,1,"Sandwiches;Fast Food;Restaurants"
"228","2rLuOMi6Q6zzqUU8ltreSA","""""First Watch - Breakfast, Brunch & Lunch""""","","""""111 W University Dr""""","Tempe","AZ","85281",33.4215708,-111.9416683,4.5,140,1,"American (Traditional);Restaurants;Cafes;Breakfast & Brunch"
"229","NIjZNZCeMwILmFGzXdTLkg","""""China 1""""","","""""319 S Power Rd""""","Mesa","AZ","85206",33.4095699,-111.6844493,4,7,0,"Restaurants;Chinese"
"230","kaVWvc71cXH9MKuQmDtVUA","""""Pho Thai Binh""""","Chinatown","""""4631 W Spring Mountain Rd""""","Las Vegas","NV","89102",36.1263001,-115.2037174,3,12,1,"Vietnamese;Restaurants"
"231","dP1_wP59hvVDWNzFFS_6YQ","""""Subway""""","The Strip","""""3999 Las Vegas Blvd S""""","Las Vegas","NV","89119",36.0903898131,-115.172310372,2,15,1,"Restaurants;Sandwiches;Fast Food"
"232","Lvr6DdVkFI8IMGfRvUcXQA","""""Little Caesars Pizza""""","","""""4340 W McDowell Rd, Ste 6""""","Phoenix","AZ","85035",33.466332,-112.153483,1,3,1,"Pizza;Restaurants"
"233","tvlHgHfBsmmNFbnFE06sgA","""""Sonic Drive-In""""","","""""1537 W Camelback Rd""""","Phoenix","AZ","85015",33.509028,-112.0927651,4,7,0,"Fast Food;Restaurants;American (Traditional)"
"234","Lqp3uwGJU6CHyys-eerMmQ","""""La Tolteca Mexican Foods""""","","""""1205 E Van Buren St""""","Phoenix","AZ","85006",33.45107,-112.055957,4,153,0,"Restaurants;Food;Specialty Food;Ethnic Food;Mexican;Grocery"
"235","T5nTtSCSRoEYMsZPhF61wg","""""Waffles Cafe""""","Centennial","""""6446 N Durango Dr, Ste 150""""","Las Vegas","NV","89149",36.2779836878,-115.286947773,4,270,1,"Breakfast & Brunch;Coffee & Tea;Restaurants;Food"
"236","gKFDJ9IpFxt95DHxTN7ZHw","""""Gyro Time Restaurant""""","Northwest","""""7660 W Cheyenne Ave""""","Las Vegas","NV","89129",36.2191781,-115.2624712,3.5,75,1,"Restaurants;Mediterranean;Greek"
"237","Lv2V5KqRlCl7_S6LKWkGlg","""""Devil's Greens""""","","""""206 E Taylor St""""","Phoenix","AZ","85004",33.4534741,-112.0711732,3,9,1,"Vegetarian;American (Traditional);Restaurants"
"238","cOWXtCz7F9GQhPIks8gm6Q","""""SOLO Trattoria""""","","""""2501 E Camelback Rd, Ste 24""""","Phoenix","AZ","85016",33.5084566429,-112.027671659,4.5,268,0,"Pizza;Food;Beer;Wine & Spirits;Specialty Food;Italian;Restaurants"
"239","k1b-NDkUJezit4LHL0Q55A","""""Taco Bell""""","","""""1550 E Warner Rd.""""","Gilbert","AZ","85296",33.33595,-111.75707,3.5,15,1,"Restaurants;Tex-Mex;Fast Food;Mexican"
"240","IY09uHwNvznCUDoFZ_su3A","""""Two Brothers Tap House and Brewery""""","","""""4321 N Scottsdale Rd""""","Scottsdale","AZ","85251",33.4991113,-111.9257941,3.5,185,1,"Restaurants;Breweries;American (Traditional);Gastropubs;Food"
"241","7m1Oa1VYV98UUuo_6i0EZg","""""Paradise Valley Burger Company""""","","""""4001 E Bell Rd""""","Phoenix","AZ","85032",33.6399134922,-111.995703477,4.5,1019,1,"Burgers;American (Traditional);Mexican;Restaurants"
"242","Vg4fqLpVxISU9ErcFwQjNw","""""Gennaro's""""","","""""4015 S Arizona Ave, Ste 1""""","Chandler","AZ","85248",33.2467202,-111.8408778,3,5,0,"Pizza;Italian;Restaurants"
"243","hJgdrSbwhkp3-GbAyS79Gg","""""Pit Boss BBQ""""","","""""1600 N Martin Luther King Blvd""""","Las Vegas","NV","89106",36.1887789,-115.160131,4,11,0,"Barbeque;American (Traditional);Restaurants"
"244","32IcpGM-x5rJoQ2UxcQiww","""""KC's Sushi and TV Bar""""","","""""848 N Gilbert Rd""""","Gilbert","AZ","85234",33.3655704,-111.7905611,3,8,0,"Restaurants;Sushi Bars"
"245","GjbF1ZEbIpC2KqUbZ7KQWQ","""""Dynamite Grill""""","Southwest","""""10450 S Decatur Blvd, Ste 105""""","Las Vegas","NV","89141",35.9999263,-115.2074951,3,93,0,"Restaurants;American (Traditional);Sushi Bars"
"246","TkXbFJtFCdM_WTLkHa6Erw","""""Panda Express""""","","""""6501 E Greenway Pkwy, Ste 131""""","Scottsdale","AZ","85254",33.6245789,-111.9413789,2.5,18,1,"Fast Food;Restaurants;Chinese"
"247","QWonnnAnTQatTdAMCdacDA","""""Sonic Drive-In""""","","""""17181 W Greenway Rd""""","Surprise","AZ","85388",33.6242808,-112.4271128,3.5,5,1,"Burgers;Fast Food;Restaurants"
"248","6vNMmkttsHkW1THWiP50xg","""""Thai Basil Chandler""""","","""""4929 W Chandler Blvd, Ste 8""""","Chandler","AZ","85226",33.3048103,-111.9270642,3.5,102,1,"Restaurants;Vegetarian;Thai"
"249","vAuzGR-ufeLu3Y_U5UlO_w","""""Stick E Rice""""","Eastside","""""2544 E Desert Inn Rd""""","Las Vegas","NV","89121",36.1308785,-115.1150025,4,53,0,"Thai;Restaurants"
"250","Xgz_NU2-wZWxQWXUFI4T2w","""""BEAT E's Ribs & More""""","","""""478 N Arizona Ave""""","Chandler","AZ","85225",33.3110787431,-111.84168566,5,3,0,"Restaurants;Chicken Wings;Burgers;Barbeque"
"251","A1ZRCrjOMOwQGj2hCYWDEQ","""""KFC""""","Summerlin","""""10267 W Charleston Blvd.""""","Las Vegas","NV","89135",36.1588,-115.316,1.5,38,1,"Chicken Wings;Restaurants;Fast Food"
"252","IJrRJLKS7qxzzVUkh1U5iA","""""Tio Freddys Mexican Food-Jalapenos""""","","""""5630 W Camelback Rd""""","Glendale","AZ","85301",33.509976,-112.179133,4.5,3,0,"Restaurants;Mexican"
"253","ySRaNkXgv0jmuT4HhmgSog","""""WisePies Pizza & Salad""""","","""""521 S College Ave, Ste 110""""","Tempe","AZ","85281",33.4246118,-111.9347836,4,14,0,"Pizza;Salad;Chicken Wings;Restaurants"
"254","UwXOqtr0LCoWsGXP96fOuQ","""""Fiesta Filipina Cuisine""""","Anthem","""""2980 St Rose Pkwy, Ste 120""""","Henderson","NV","89183",36.0054036506,-115.117831742,3.5,151,1,"Fast Food;Filipino;Restaurants;Specialty Food;Ethnic Food;Food"
"255","LcYrqMhUO_TITSXFk_SjJA","""""Sweet Tomatoes""""","","""""21001 North Tatum Blvd., #93""""","Phoenix","AZ","85050",33.6769879109,-111.976226221,3.5,115,1,"Soup;Restaurants;Buffets;Vegetarian;Salad"
"256","beuVp5CZxCdNvQIIPBS2rw","""""Chubby Cattle""""","Chinatown","""""3400 S Jones Blvd, Ste 15""""","Las Vegas","NV","89146",36.1273078,-115.2243612,4.5,516,1,"Do-It-Yourself Food;Barbeque;Restaurants;Hot Pot;Chinese;Fondue;Mongolian;Food"
"257","iGvnkEz2efD9q-Z7ZcasWQ","""""Papa John's Pizza""""","","""""2836 E Indian School Rd""""","Phoenix","AZ","85016",33.4954365,-112.0197856,1.5,8,1,"Pizza;Italian;Restaurants"
"258","H-gllDEH0DHqE-HmzdHtKg","""""Jersey Mike's Subs""""","","""""4715 S Rural Rd""""","Tempe","AZ","85282",33.3800215,-111.9278632,2.5,22,1,"Sandwiches;Delis;Restaurants;Fast Food"
"259","oL_fYqSHG63vR0TBMyoo_A","""""Green Leaf's & Bananas""""","Downtown","""""875 S Grand Central Pkwy, Ste 1490""""","Las Vegas","NV","89106",36.163691,-115.157758,2,23,1,"Soup;Restaurants;Ice Cream & Frozen Yogurt;Food;Salad;Juice Bars & Smoothies"
"260","-voRkfS42YKYsrJ9DV0FxQ","""""Panda Express""""","","""""2434 E Baseline Rd, Ste 101""""","Phoenix","AZ","85042",33.3785008,-112.0286997,2.5,28,1,"Chinese;Fast Food;Restaurants"
"261","_8VkSb_Mryb6bHQxSWB7Pg","""""Swish Shabu Shabu""""","Chinatown","""""5115 W Spring Mountain Rd, Ste 121""""","Las Vegas","NV","89146",36.1261008,-115.211285,3.5,386,0,"Hot Pot;Sushi Bars;Japanese;Restaurants;Fondue"
"262","Jpyh7MfaNysY3geXjhzqJQ","""""CHAR Pizzeria Napoletana""""","","""""25101 N Lake Pleasant Pkwy, Ste 1325""""","Peoria","AZ","85383",33.7115673,-112.2713709,4,185,1,"Pizza;Italian;Restaurants"
"263","9hPqmpOpH-POC0D0nlix3A","""""Silver Mine Subs""""","","""""655 W Warner Rd""""","Tempe","AZ","85284",33.3329516,-111.9472856,3.5,14,0,"Restaurants;Sandwiches"
"264","ZVtjS8Hvq2a6SxHxlehPGg","""""L'Amore Italian Restaurant""""","","""""3159 E Lincoln Dr""""","Phoenix","AZ","85016",33.5308313643,-112.013368219,4.5,159,1,"Italian;Restaurants"
"265","sfGYIlU3ji6V3c0aWyny5A","""""Lim's Chinese Restaurant""""","","""""7532 W Indian School Rd""""","Phoenix","AZ","85033",33.494652,-112.2221676,4,12,0,"Specialty Food;Cantonese;Food;Restaurants;Ethnic Food;Chinese"
"266","39BNnMLzx0UUwkWKxGeQKA","""""La Cosina Mexican Restaurant""""","Southeast","""""7320 Las Vegas Blvd S, Ste 110""""","Las Vegas","NV","89123",36.0564689,-115.1722497,4,27,0,"Mexican;Restaurants"
"267","ef28eNdWA3g7OMsnf_fbSA","""""Water Ice Cream & More""""","","""""33 W Baseline Rd""""","Tempe","AZ","85283",33.3775849,-111.9403397,5,5,1,"Restaurants;Ice Cream & Frozen Yogurt;Food"
"268","yBkfQ4AZkjYUcZqi7cnrbA","""""Smashburger""""","","""""2904 S Santan Village Pkwy, Ste 104""""","Gilbert","AZ","85295",33.2971056,-111.743951,3.5,88,1,"Burgers;Restaurants;Food"
"269","UEuvtQTKNS0w53oJTrwS2Q","""""Sin City Sandwich""""","Downtown","""""375 Lewis Ave""""","Las Vegas","NV","89101",36.1665965,-115.1442241,4.5,48,0,"Sandwiches;Food;Caterers;Coffee & Tea;Restaurants;Event Planning & Services"
"270","t_9dmtogyjAocFsNW1igag","""""Starbucks""""","","""""6807 E Baseline Rd, Ste 101""""","Mesa","AZ","85209",33.3789313,-111.6873472,3,26,1,"Restaurants;Coffee & Tea;Food;Cafes"
"271","wjf1uZNr6E4LQ0nUNHX5AA","""""Rivas Mexican Grill #2""""","Eastside","""""3025 E Desert Inn Rd, Ste1""""","Las Vegas","NV","89121",36.128693,-115.1091,3.5,66,1,"Restaurants;Mexican"
"272","qMJyOW1FdPOf8sli8DIq_A","""""Délice Bistro""""","","""""690 S Mill Ave""""","Tempe","AZ","85281",33.4234132387,-111.940683119,3.5,174,0,"Modern European;Coffee & Tea;Breakfast & Brunch;Bakeries;Cafes;Food;Desserts;Restaurants"
"273","4q6Kob6zvMoLq2pO-DtAPg","""""Cafe Nordstrom""""","","""""7055 E Camelback Rd""""","Scottsdale","AZ","85251",33.5017764,-111.9291509,3,4,0,"Restaurants;Cafes;Food;Salad;Coffee & Tea"
"274","oxv2UyI5yF6yawPU20tOxA","""""Old Town Tortilla Factory""""","","""""6910 E Main St""""","Scottsdale","AZ","85251",33.4933306,-111.9321082,3,381,1,"Nightlife;Beer Bar;Restaurants;Tex-Mex;Bars;Mexican"
"275","r_2-xafEtXp76fYUeQpF8A","""""Wendy's""""","","""""727 S Cooper Rd""""","Gilbert","AZ","85233",33.3367952,-111.8063145,2.5,9,1,"Restaurants;Fast Food;Burgers"
"276","piHJq_NDrOh5SYk3AyQVOg","""""Chestnut Fine Foods & Provisions""""","","""""4350 E Camelback Rd, Bldg I-100""""","Phoenix","AZ","85018",33.5098255809,-111.987097553,3,238,1,"Ramen;Restaurants;Cafes;Breakfast & Brunch;American (New);Japanese"
"277","TvDsoVbGEGtXBCaVcICKVA","""""Pub'n Grub""""","","""""2815 S Alma School Rd, Ste 101""""","Mesa","AZ","85210",33.3638634,-111.8581176,4,63,1,"American (New);Pubs;Bars;Nightlife;Restaurants"
"278","Kq2fw7SAKOLOmiJyVCbeFA","""""Preston's Steakhouse""""","","""""8700 E Pinnacle Peak Rd, Ste 115""""","Scottsdale","AZ","85255",33.699168,-111.892549,4,144,1,"Restaurants;Desserts;Steakhouses;Nightlife;Food;Bars;American (Traditional);Seafood"
"279","kUntNQ5P9IrRzEoHdRxV-w","""""Mark Rich's New York Pizza & Pasta""""","Centennial","""""7930 W Tropical Pkwy""""","Las Vegas","NV","89149",36.2710367,-115.267937,3,98,0,"Restaurants;Pizza"
"280","GmLkyWb_zYrTEp1SpWxHIA","""""Julia Baker Confections""""","","""""Biltmore Fashion Park, 2502 E Camelback, Ste 130""""","Phoenix","AZ","85016",33.5082687981,-112.031715646,4.5,71,0,"Bakeries;Food;Specialty Food;Cafes;Chocolatiers & Shops;Restaurants"
"281","POvyRhl4VIZQTBRlZCb8cQ","""""Crazy Chicken & Crab""""","","""""1825 W Chandler Blvd""""","Chandler","AZ","85224",33.304492,-111.873637,3.5,54,0,"Chicken Wings;American (New);Korean;Restaurants;Chicken Shop"
"282","uUKkVTCN5_qzNo1YVXMnZA","""""Local Jonny's""""","","""""6033 E Cave Creek Rd""""","Cave Creek","AZ","85331",33.8329817862,-111.950488128,4.5,165,1,"American (New);Nightlife;Food;Cafes;Breakfast & Brunch;Restaurants;Vegetarian;Coffee & Tea;Beer Bar;Bars;Pubs"
"283","6WWXpMwIB7gTc4yZrkM-fQ","""""Hot Dog On A Stick""""","The Strip","""""3850 Las Vegas Blvd S""""","Las Vegas","NV","89109",36.0988311768,-115.175765991,3.5,17,1,"Fast Food;Food;Hot Dogs;Restaurants"
"284","Ekxhn3gyMfoXslnVxhZn3w","""""Taco Bell""""","","""""6200 West Lake Mead""""","Las Vegas","NV","89108",36.195937,-115.227792,3,9,1,"Fast Food;Tex-Mex;Restaurants;Mexican"
"285","4NfjvMzUG5rbkxtPg-8pkw","""""Panda Express""""","","""""7000 16th St, Ste 100""""","Phoenix","AZ","85020",33.5386355022,-112.048382247,2.5,26,1,"Fast Food;Restaurants;Chinese"
"286","nwHd2MbIGz0SNG8GpFjekw","""""Los Taquitos""""","","""""7000 N 16th St""""","Phoenix","AZ","85020",33.5395733,-112.048346014,4,334,1,"Mexican;Restaurants"
"287","YWjfWHizWgHSsAPGfQChXw","""""Sonic Drive-In""""","","""""4740 Baseline Rd""""","Phoenix","AZ","85040",33.3787187,-111.979667,2,23,1,"Fast Food;Restaurants;American (Traditional)"
"288","qgHx71_UAWHRySTPMaAJqw","""""Canyon 49 Grill""""","","""""5115 N 27th Ave""""","Phoenix","AZ","85017",33.5123661,-112.1141992,3,53,1,"American (Traditional);Cafes;Restaurants;Breakfast & Brunch"
"289","jxbEwtV8Et1lm8ubk4AGuw","""""Mimosas Gourmet""""","Spring Valley","""""3455 S Durango Dr, Ste 114""""","Las Vegas","NV","89117",36.1271903,-115.2800102,4.5,205,1,"Restaurants;Breakfast & Brunch"
"290","3weo8OctYcKoS_AV9OrOgw","""""Juice NV""""","","""""9500 S Eastern Ave, Ste 110""""","Las Vegas","NV","89123",36.016341616,-115.117167458,3.5,53,0,"Juice Bars & Smoothies;Restaurants;Vegan;Food;Vegetarian"
"291","OMf69ePEdHXvaqAlCCI01A","""""Cibo E Vino""""","","""""34522 N Scottsdale Rd""""","Scottsdale","AZ","85266",33.7988492973,-111.930982941,2.5,90,0,"Restaurants;Italian"
"292","VoJxPSgdVN8en44bLYEbHA","""""Binh Duong Quan""""","","""""66 S Dobson Rd, Ste 124""""","Mesa","AZ","85202",33.4134626757,-111.876013912,3,5,1,"Restaurants;Vietnamese"
"293","oPZBmtQnESS5VAGl31knTw","""""Brooklyn Cafe""""","","""""8340 E McDonald Dr""""","Scottsdale","AZ","85250",33.52447,-111.901147,4.5,6,0,"French;American (Traditional);Restaurants;American (New)"
"294","5thrJ65LxYTv8_d200uTbQ","""""Cafe 24/7""""","","""""1077 S Kyrene Rd""""","Chandler","AZ","85226",33.2891124,-111.9427994,4,4,1,"Restaurants;Breakfast & Brunch;Arts & Entertainment;Casinos;American (Traditional)"
"295","LFI82Rds5tKa5EAngmDvLQ","""""Seoul Garden""""","","""""1324 S Rural Rd""""","Tempe","AZ","85281",33.4130961,-111.9262735,2.5,8,0,"Restaurants;Korean"
"296","m8qJtl3l6QXJMnNxN6LQRQ","""""Jennifer's Catering & Events""""","","""""3603 E Indian School Rd, Ste A""""","Phoenix","AZ","85018",33.4951613,-112.0041452,3.5,9,1,"Restaurants;Caterers;Event Planning & Services;Ethiopian;American (Traditional)"
"297","AtSEe-B2mFmLFHBf4PLTrw","""""Wildflower Bread Company""""","","""""6428 S Mcclintock Rd, Ste 104""""","Tempe","AZ","85283",33.3624661,-111.9126201,4,234,1,"Food;Sandwiches;Breakfast & Brunch;Restaurants;Bakeries"
"298","Xqur5VuobC9WW3crdxZPBw","""""Amlee Chinese Cuisine""""","Southeast","""""3827 E Sunset Rd""""","Las Vegas","NV","89120",36.0707165,-115.0911257,3.5,98,1,"Soup;Chinese;Restaurants;Salad"
"299","TqBrg3OpIJZo772EOA0I1g","""""Lao Thai""""","","""""2200 N Scottsdale Rd""""","Scottsdale","AZ","85257",33.471801,-111.927464,4,66,0,"Restaurants;Thai"
"300","L2iT7pipc455Tgpbo35_mw","""""CASA Sunbá""""","","""""15 E 6th St""""","Tempe","AZ","85281",33.4243368,-111.9394223,3,220,1,"Restaurants;Bars;Cocktail Bars;American (Traditional);Lounges;Mexican;Sports Bars;Nightlife;American (New);Vegan;Tapas Bars"
"301","9VEJkUd0eHIlKmCu0flvBw","""""Papa John's Pizza""""","","""""5602 S Central Ave""""","Phoenix","AZ","85040",33.395649924,-112.073739991,3.5,7,1,"Restaurants;Pizza"
"302","PBghJox_ZpSSa2nWyYuxpw","""""Taco Bell""""","Anthem","""""199 N Pecos Rd""""","Henderson","NV","89074",35.9913338911,-115.101586374,2.5,14,1,"Restaurants;Fast Food;Tex-Mex;Mexican"
"303","uCi2ropZuhG4XVcMDaurAw","""""Rachel's Kitchen""""","Anthem","""""2265 Village Walk Dr""""","Henderson","NV","89052",36.021113,-115.087495,4,329,1,"Food;American (New);Gluten-Free;Breakfast & Brunch;Restaurants;Sandwiches;Juice Bars & Smoothies"
"304","gtVPsVK83JkeyrN1C1ozeQ","""""Pizza Lotto""""","Downtown","""""600 E Fremont St""""","Las Vegas","NV","89101",36.1689134331,-115.13848629,4,72,0,"Pizza;Chicken Wings;Italian;Restaurants"
"305","Km7BcCSXb78oymx-Ek2P9w","""""Husongs Cantina""""","The Strip","""""3930 Las Vegas Blvd""""","Las Vegas","NV","89119",36.086668,-115.172986,5,4,1,"Mexican;Restaurants"
"306","OVb3wbv59wTcd0pQrXBZXw","""""Rayner's Chocolate & Coffee Shop""""","","""""14021 N 51st Ave, Ste 106""""","Glendale","AZ","85306",33.6133001,-112.1677843,4.5,203,1,"Restaurants;Cafes;Coffee & Tea;Chocolatiers & Shops;Food;Specialty Food"
"307","STmoasVuj_h-XYqqPEoxTg","""""Domino's Pizza""""","","""""7606 W Indian School Rd""""","Phoenix","AZ","85033",33.4949799,-112.2234001,1.5,12,1,"Pizza;Chicken Wings;Sandwiches;Restaurants"
"308","T-KniGykrZ46ZC9plOTspw","""""PHX Burrito House""""","","""""4140 N 7th Ave""""","Phoenix","AZ","85013",33.4963856007,-112.083983186,4.5,460,1,"Mexican;Restaurants"
"309","ls9OapWdKvheW60_qq54Vw","""""Blue Wasabi Sushi and Martini Bar""""","","""""Hilton Village, 6137 N Scottsdale Rd""""","Scottsdale","AZ","85250",33.52681,-111.9246221,3.5,65,0,"Sushi Bars;Restaurants"
"310","Om5mo4oWKPn_kPpLjNiV4Q","""""IHOP""""","","""""3788 S Arizona Ave""""","Chandler","AZ","85248",33.2501113,-111.8413508,2.5,44,1,"Restaurants;American (Traditional);Breakfast & Brunch;American (New)"
"311","AnXovUgUHJap3QaDRnjL1w","""""Blueberry Hill Family Restaurant""""","Eastside","""""3790 E Flamingo Rd""""","Las Vegas","NV","89121",36.1161975,-115.092388,4,331,1,"Breakfast & Brunch;Diners;American (New);Restaurants"
"312","EuPaczO6rMpDMrn-GtE_eA","""""Tokyo Stop""""","","""""1335 W University Dr, Ste 6""""","Tempe","AZ","85281",33.4212112,-111.9601987,4,81,1,"Restaurants;Japanese"
"313","KCD4AuLXNhbG87fJaX9_gw","""""Port of Subs""""","","""""6620 E Mckellips Rd, Ste 101""""","Mesa","AZ","85215",33.453007,-111.6882393,3.5,23,0,"Salad;Restaurants;Breakfast & Brunch;Delis;Sandwiches"
"314","VYOtofDcgJIV5-vPUd4sZA","""""Cicis""""","Sunrise","""""309 N Nellis Blvd, Ste 120""""","Las Vegas","NV","89110",36.1669127274,-115.063594034,3,42,1,"American (Traditional);Restaurants;Pizza"
"315","B19KKE75ZxqoR3EDuvA1qw","""""China Star""""","Westside","""""4595 W Charleston Blvd""""","Las Vegas","NV","89102",36.1586341,-115.2030893,3,69,1,"Restaurants;Chinese"
"316","9y1uLUHxZ3m_4KzydQj9YQ","""""Wingstop""""","","""""4041 E Thomas Rd""""","Phoenix","AZ","85018",33.4797947633,-111.994190819,3,30,1,"Chicken Wings;Restaurants"
"317","nM9NwHXy3EadihjJTG2i5w","""""Pancho's Vegan Tacos""""","Eastside","""""4865 S Pecos Rd, Ste 5""""","Las Vegas","NV","89121",36.1007774746,-115.101814503,4.5,193,1,"Vegan;Mexican;Restaurants;Tacos"
"318","PTbnuJ1QqeFpRZfPlwY9wQ","""""Arby's""""","","""""2130 S Power Rd""""","Mesa","AZ","85208",33.3768225,-111.688404,3,11,1,"Restaurants;Sandwiches;Fast Food"
"319","fPRMjWUHLnNeL4xjrMV9CQ","""""Domino's Pizza""""","","""""8248 W Deer Valley Rd""""","Peoria","AZ","85382",33.6830919,-112.2369447,1.5,14,1,"Sandwiches;Food Delivery Services;Food;Chicken Wings;Pizza;Restaurants"
"320","FTdEGDDVRrDmVbzHmC91wQ","""""Kneaders Bakery & Cafe""""","","""""1150 E Bell Rd""""","Phoenix","AZ","85022",33.6408668108,-112.058558867,4,60,1,"Breakfast & Brunch;American (Traditional);Bakeries;Restaurants;Food"
"321","xsFeeqZS6PoVvwseEefzEw","""""PastaBAR""""","","""""705 N 1st St""""","Phoenix","AZ","85004",33.4558709,-112.0722832,3.5,113,0,"Food;Ice Cream & Frozen Yogurt;Restaurants;Italian"
"322","XAt9Km4EIM6EE7LXwfB2Vg","""""Carl's Jr 7091""""","","""""2343 E Bell Rd""""","Phoenix","AZ","85022",33.6400298,-112.031334,3,11,1,"Restaurants;American (New)"
"323","p5rpYtxS5xPQjt3MXYVEwA","""""Greens and Proteins""""","Southeast","""""8975 S Eastern Ave""""","Las Vegas","NV","89123",36.0262317,-115.1192573,4,635,1,"Juice Bars & Smoothies;Cafes;Vegetarian;American (New);American (Traditional);Sandwiches;Vegan;Food;Pizza;Breakfast & Brunch;Burgers;Restaurants"
"324","SknYYIK1rBNgYqNl4tYUPA","""""Marias Taco Shop""""","Southeast","""""7380 S Eastern Ave, Ste 118""""","Las Vegas","NV","89123",36.055748,-115.1170812,3.5,31,1,"Restaurants;Mexican"
"325","Z1HnNAGBt0y9uZX1a1_9sQ","""""Subway""""","","""""7500 W Lake Mead Blvd, Ste 8""""","Las Vegas","NV","89128",36.1973681,-115.2578289,3,14,1,"Food;Fast Food;Sandwiches;Restaurants"
"326","b5AmERAalTaMzpcwMdu4uQ","""""Madelyn's""""","","""""39504 N Daisy Mountain Dr""""","Anthem","AZ","85086",33.8431953,-112.1347619,3.5,4,0,"Bars;Restaurants;Nightlife;Wine Bars;American (New)"
"327","-LVpf-mKjrWT51JgCY3gRQ","""""McAlister's Deli""""","","""""12847 N Tatum Blvd""""","Phoenix","AZ","85032",33.602801436,-111.978133833,4,105,0,"Sandwiches;Delis;Restaurants;Salad"
"328","5qK5rJxwo0cjP3vTf3lkSA","""""Little Caesars Pizza""""","Northwest","""""6621 W Cheyenne Ave""""","Las Vegas","NV","89108",36.2178018,-115.2406243,1.5,24,1,"Restaurants;Pizza"
"329","bOvX5rHfdgKsjzOUIKOC6A","""""LongHorn Steakhouse""""","","""""980 N 54th St""""","Chandler","AZ","85226",33.3193947,-111.96902,3.5,134,1,"Steakhouses;American (Traditional);Restaurants;Barbeque"
"330","3l5TusofKjr8rk6-DDtuoQ","""""Rotana""""","","""""830 E Greenway Pkwy""""","Phoenix","AZ","85022",33.6381711,-112.0626543,3.5,130,0,"Restaurants;Mediterranean"
"331","j2w6wlRmlaZaaErQus8ElQ","""""Pita House""""","Southeast","""""1310 E Silverado Ranch Blvd, Ste 101""""","Las Vegas","NV","89183",36.0140871839,-115.135131108,4.5,243,1,"Restaurants;Vegan;Mediterranean"
"332","9hNuOUywLPHdSbAXtQ9DhQ","""""Slices Pizzeria""""","","""""4111 Boulder Hwy""""","Las Vegas","NV","89121",36.1337103,-115.0850568,3,10,1,"Restaurants;Pizza"
"333","CvonRhKDJaH155xhtpz_iw","""""State 48 Brewery""""","","""""13823 W Bell Rd""""","Surprise","AZ","85374",33.6382373275,-112.357800007,3.5,334,1,"American (New);Restaurants;Pizza;Gastropubs;Breweries;Food;Nightlife;Fish & Chips;Bars;Pubs"
"334","MFEFshl-YZ1lsbtOd8xA-Q","""""Kaleidoscope Juice""""","","""""4014 Goldwater Blvd""""","Scottsdale","AZ","85251",33.4937481,-111.9307011,4.5,44,0,"Juice Bars & Smoothies;Salad;Food;Restaurants"
"335","4STzP1q1uM8ONkKookifsw","""""Nan Zhou - Hand Drawn Noodle House""""","","""""111 S Dobson Rd""""","Mesa","AZ","85202",33.4125729,-111.8738256,4,122,1,"Asian Fusion;Noodles;Chinese;Dim Sum;Restaurants"
"336","L8QF9uWDBujU9rNOzdLfjg","""""Steve's Krazy Sub""""","","""""6853 E Main St""""","Mesa","AZ","85207",33.4155386,-111.6826802,4,34,1,"Sandwiches;Restaurants"
"337","NLJBHry230J4m_b2bkNZRg","""""Melted Cheese Kitchen""""","","""""4995 S Alma School Rd, Ste 1""""","Chandler","AZ","85248",33.2475,-111.87918,2.5,5,0,"Restaurants;Sandwiches"
"338","YR9aS-uI4iJyqHSECMIhGw","""""Bongo's Bar & Grill""""","","""""4080 W Ray Rd, Ste 26""""","Chandler","AZ","85226",33.322376,-111.911819,3.5,16,0,"Beer;Wine & Spirits;Restaurants;American (New);Food"
"339","tfg08x88Mr4nEr8_bVal7w","""""Restaurante Guadalajara""""","Sunrise","""""1725 N Nellis Blvd""""","Las Vegas","NV","89115",36.190844065,-115.062406159,4.5,7,0,"Vegetarian;Seafood;Mexican;Restaurants"
"340","sjzNO9hLHSNAixdwtb_RQg","""""Rally's""""","","""""1050 W Chandler Rd""""","Chandler","AZ","85224",33.3061232,-111.8605721,2.5,11,0,"Fast Food;Restaurants"
"341","mjhwLcuoenVW8oFhcNmlHA","""""Claim Jumper""""","Westside","""""1100 S Fort Apache Rd""""","Las Vegas","NV","89117",36.1586208868,-115.290936644,3,306,1,"American (New);Restaurants"
"342","83cVpTJNyzv9lJ20vzBgdg","""""Pizza on 40th""""","","""""3937 E Indian School Rd""""","Phoenix","AZ","85018",33.4940588,-111.9958268,4,80,1,"Restaurants;Pizza"
"343","aIZQF2UCLv6ru-zsPK4H2Q","""""Texas BBQ House""""","","""""5037 S 24th St""""","Phoenix","AZ","85040",33.399961,-112.0294348,4.5,349,1,"Restaurants;Barbeque"
"344","2ADoawEfSAZpnQSwVEo5Ig","""""Sonic Drive-In""""","","""""17238 N 19th Ave""""","Phoenix","AZ","85023",33.6426268,-112.1003364,2,15,1,"Fast Food;Restaurants;American (Traditional)"
"345","ZDdEtIFhLsoydDvB8joYrA","""""Lucky's Pizza""""","","""""3130 E Union Hills Dr""""","Phoenix","AZ","85050",33.6556294,-112.015465,3.5,6,0,"Restaurants;Pizza"
"346","jFVcpqn1Q85AEDGQDv91mg","""""Ya Hala!""""","","""""2301 E Bell Rd""""","Phoenix","AZ","85022",33.6395267082,-112.032832091,4,17,1,"Food;Arabian;Grocery;Convenience Stores;Middle Eastern;Restaurants;Mediterranean;Falafel;Shopping;Shopping Centers"
"347","8nP8ghEpT6WFcM6tfqAaGA","""""Sugar Bowl""""","","""""4005 N Scottsdale Rd""""","Scottsdale","AZ","85251",33.4937734,-111.9259244,3.5,513,1,"Food;Ice Cream & Frozen Yogurt;American (Traditional);Restaurants"
"348","sVeSK69iNUUsMU6tpXzl6Q","""""Angelina's Pizzeria""""","Anthem","""""835 Seven Hills Dr""""","Henderson","NV","89052",35.9967416,-115.1246816,3,219,1,"Restaurants;Pizza"
"349","9AJcD4UfawSSgc5007SWAw","""""Ocean Buffet""""","","""""1450 S Country Club Dr""""","Mesa","AZ","85210",33.3880497,-111.8402882,2.5,15,0,"Restaurants;Buffets;Chinese"
"350","3qgEB0R-5n5A1hOH83FzhA","""""Hidalgo Mexican Food""""","","""""801 E Broadway""""","Mesa","AZ","85204",33.407534,-111.813858,3,25,1,"Mexican;Restaurants;Food"
"351","1BtNZszIr8LvtPOhN0X4Mw","""""Gold Mine Bar & Grill""""","Eastside","""""3950 Koval Ln""""","Las Vegas","NV","89109",36.1179234185,-115.160769756,2.5,26,1,"American (Traditional);Bars;Nightlife;Restaurants"
"352","PPR-7QXDjicPRA5C4rZ5eA","""""Evos""""","Anthem","""""10895 S Eastern Ave""""","Henderson","NV","89014",35.993777,-115.101582,4,12,0,"Restaurants;Fast Food"
"353","sgyc0SN3pWJWTYc9w-PVmQ","""""Panda Gourmet""""","","""""9020 N 19th Ave""""","Phoenix","AZ","85021",33.5682459,-112.100125,3.5,5,0,"Restaurants;Chinese"
"354","HiqYus6muaBFlZtHhES7XQ","""""Del Taco""""","Southwest","""""4800 W Cactus Ave""""","Las Vegas","NV","89141",35.9987412358,-115.205506682,2,24,1,"Restaurants;Mexican;Fast Food"
"355","7Xw_vv-ekUL2sTqipnKT0g","""""Buffalo Wild Wings""""","Southeast","""""7430 Las Vegas Blvd South, Suite 120""""","Las Vegas","NV","89123",36.054301,-115.171477,2.5,398,1,"Chicken Wings;Nightlife;Sports Bars;Restaurants;American (Traditional);Bars;Barbeque"
"356","zy6Hzao6lTmuJMZo4BemIg","""""Filiberto's Mexican Food""""","","""""5220 W. Baseline Road""""","Laveen","AZ","85339",33.3779029846,-112.172332764,1.5,41,1,"Restaurants;Mexican"
"357","ZhLSAiRj9kANxf8m2SBfRA","""""Lucki Thai""""","Southeast","""""467 E Silverado Ranch Blvd""""","Las Vegas","NV","89183",36.0119846411,-115.153598562,4.5,560,1,"Thai;Local Flavor;Restaurants"
"358","4qqkgaOXoIgniMqbEiqqKA","""""Wendy's""""","","""""929 N Arizona Ave""""","Gilbert","AZ","85233",33.366493,-111.8412881,2,18,1,"Fast Food;Restaurants;Burgers"
"359","j2X3hMTiwLhhAMlDUyasXQ","""""Arcadia Farms Marketplace""""","","""""7025 E 1st Ave""""","Scottsdale","AZ","85251",33.493736,-111.929579,4,7,1,"Breakfast & Brunch;Restaurants;American (New);Sandwiches"
"360","MmEV_9-EEiewVQcxPnWUaA","""""Big Island Boba""""","Anthem","""""10100 S Eastern Ave""""","Henderson","NV","89052",36.0057452,-115.1124407,3,6,0,"Desserts;Food;Hawaiian;Restaurants"
"361","NQXuoB9JTPUItHvouMgWjQ","""""Violette's Vegan Organic Cafe & Juice Bar""""","Westside","""""8560 W Desert Inn Rd, Ste D5""""","Las Vegas","NV","89117",36.1300289,-115.2777727,4,538,1,"Juice Bars & Smoothies;Vegetarian;Vegan;Restaurants;Food"
"362","L9nMax4J-1kufJAeWRxASw","""""Caribbean Cuisine""""","","""""6031 N 67th Ave""""","Glendale","AZ","85301",33.5251689403,-112.20263388,4.5,121,1,"Trinidadian;Restaurants;Caribbean"
"363","OMUe6NNOFEe0VdAouIqAuA","""""Sofia's Cafe""""","Westside","""""3380 Arville St, Ste C""""","Las Vegas","NV","89102",36.1286741,-115.1988504,3.5,39,1,"Soup;Pizza;Restaurants;Mediterranean;Italian"
"364","xGv3zpEr_yH7H_sCfEyzaQ","""""Seed Shack""""","","""""3861 E Baseline Rd K136""""","Gilbert","AZ","85234",33.3785337,-111.7490249,4.5,23,1,"Vegetarian;Juice Bars & Smoothies;Vegan;Food;Restaurants"
"365","1nhPU1FP-yrI_9UufQQcQg","""""Nestle Toll House Cafe by Chip""""","","""""6800 N 95th Ave, Ste 760""""","Glendale","AZ","85305",33.5354875687,-112.267248347,2.5,28,1,"Coffee & Tea;Ice Cream & Frozen Yogurt;Desserts;Food;Bakeries;Restaurants;Cafes"
"366","p9uc6E8UR9Y3Bftj8g5AZA","""""McDonald's""""","","""""3434 W Union Hills Dr""""","Phoenix","AZ","85027",33.6550622,-112.1335065,2,12,1,"Restaurants;Burgers;Fast Food"
"367","ahzHzyALM4ZCEVRrs2KejA","""""Port of Subs""""","","""""2285 N Green Valley Pkwy""""","Henderson","NV","89014",36.0562618,-115.0853839,4,27,1,"Restaurants;Sandwiches;Salad;Delis;Breakfast & Brunch"
"368","RslaL6v-H9e3o2R-WrJKpA","""""Nour Deli And Bakery""""","","""""8876 S Eastern Ave""""","Las Vegas","NV","89123",36.0291019,-115.1149607,4,5,0,"Bakeries;Mediterranean;Food;Restaurants"
"369","4c1IWqXjJxcdV9Y91xsJNQ","""""Dairy Queen""""","","""""5217 S Central Ave""""","Phoenix","AZ","85040",33.3990049,-112.0724706,3.5,5,1,"Food;Ice Cream & Frozen Yogurt;Restaurants;Fast Food"
"370","mvMih24zuSw_dZyU_LEY7g","""""Pizza Hut""""","Sunrise","""""5105 E. Sahara Ave., #128""""","Las Vegas","NV","89142",36.1442831,-115.0625725,2.5,20,1,"Pizza;Restaurants;Chicken Wings"
"371","fQclKmk5G2_g98cDNPvj0g","""""El Tlacoyo""""","","""""2535 E University Dr""""","Tempe","AZ","85281",33.4214628,-111.8835179,4,49,1,"Restaurants;Mexican"
"372","lf-knzhWrrzumHIEoBntxg","""""Pho 35""""","","""""3515 W Northern Ave""""","Phoenix","AZ","85051",33.5530966,-112.1357952,3.5,12,0,"Restaurants;Vietnamese;Food"
"373","k-oXgIdQlBe9rn8rWfRUdw","""""Famous Philly Steak & Gyro""""","","""""240 North Jones Blvd, Ste E""""","Las Vegas","NV","89107",36.1758048768,-115.222325813,4.5,31,1,"Mediterranean;Restaurants;Cheesesteaks"
"374","FxmRCMHAa3VeUXmHkk9RJA","""""Starbucks""""","","""""1845 E Baseline Rd""""","Gilbert","AZ","85233",33.335927,-111.807599,2.5,8,1,"Coffee & Tea;Cafes;Food;Restaurants"
"375","S1N5-ZXwR4fUIPs6dLnBYQ","""""Hue Thai""""","Chinatown","""""5115 Spring Mountain Rd, Ste 223""""","Las Vegas","NV","89146",36.125587,-115.211199,3.5,318,1,"Restaurants;Vietnamese;Chinese;Thai"
"376","HV2vPReKp0n0E6zgjsu4Mg","""""Garnachas Mexican Street Food""""","Westside","""""3111 S Valley View Blvd, Ste K107""""","Las Vegas","NV","89102",36.1335902958,-115.190733453,4.5,51,0,"Beer;Wine & Spirits;Food;Mexican;Restaurants"
"377","Zrx25j1M794Nh8fUGB8E9A","""""TGI Fridays""""","","""""4500 W Tropicana Ave""""","Las Vegas","NV","89103",36.102704,-115.202215,2.5,211,1,"Bars;Seafood;Nightlife;Restaurants;American (Traditional)"
"378","P3ufH0wm0jvulnrinDpaAA","""""Buffalo Wild Wings""""","","""""9404 W. Westgate Blvd, Suite C107""""","Glendale","AZ","85305",33.534484,-112.2619851,2.5,218,1,"American (Traditional);Sports Bars;Chicken Wings;Nightlife;Bars;Restaurants"
"379","xVlj8zOeyGMXpZpdbJj7Rw","""""Korean Delicious Restaurant""""","Chinatown","""""5030 Spring Mountain Rd""""","Las Vegas","NV","89146",36.126211,-115.209584,3,13,0,"Korean;Restaurants"
"380","HvsTnw0GhhQaBuB45FJJag","""""Subway""""","","""""2700 W Baseline Rd""""","Tempe","AZ","85283",33.3785582046,-111.976816698,3.5,14,1,"Fast Food;Sandwiches;Restaurants"
"381","GRLHdCXzmFCBbvvjRxXnrA","""""Dinner in the Sky""""","Westside","""""2800 West Sahara Ave""""","Las Vegas","NV","89102",36.145296,-115.1794176,3.5,3,0,"Restaurants;American (New)"
"382","2Gh1Etnpn_BDy72hOXmCtg","""""Pho Viet Vietnamese Restaurant""""","","""""4232 W Bell Rd""""","Glendale","AZ","85308",33.6400698,-112.1498222,4,429,1,"Ethnic Food;Restaurants;Soup;Specialty Food;Vietnamese;Food"
"383","N-RvDnKBTGa-jwD4u1kjvw","""""Panera Bread""""","","""""7635 W Bell Rd""""","Peoria","AZ","85382",33.6377710596,-112.222918421,2.5,26,1,"Restaurants;Soup;Sandwiches;Salad"
"384","mY5uAxJRTFFM36ICKdbOYQ","""""McDonald's""""","","""""1408 W Craig Rd""""","North Las Vegas","NV","89032",36.2399266279,-115.160820572,1.5,54,1,"Restaurants;Fast Food;Burgers"
"385","04Iq42i8lm50Lvdj1j3DCQ","""""Gretalian""""","","""""5341 N 7th Ave""""","Phoenix","AZ","85013",33.5163421,-112.0822543,3,4,0,"Italian;Restaurants;Food;American (New);Greek"
"386","BNTERBvasuHNDSnUOe1aSw","""""Taco Bell""""","","""""7714 W Bell Rd""""","Glendale","AZ","85308",33.638686088,-112.226060801,2,24,1,"Mexican;Tex-Mex;Restaurants;Fast Food"
"387","GStieDpK7oi2pXggQXi-Kg","""""Wienerschnitzel""""","Sunrise","""""4470 E Charleston""""","Las Vegas","NV","89104",36.1592640772,-115.077968956,3,5,1,"Hot Dogs;Sandwiches;Fast Food;Restaurants"
"388","IWF6pgOPF7gNBOJqL8AaXQ","""""Nam Sao""""","","""""4349 W Bell Rd""""","Glendale","AZ","85311",33.6392038,-112.1530065,3.5,49,0,"Restaurants;Vietnamese"
"389","dtQ_nIADFp7AP91H0ttAKA","""""In-N-Out Burger""""","","""""2790 W Chandler Blvd""""","Chandler","AZ","85226",33.3064117,-111.8917575,4.5,124,1,"Fast Food;Burgers;Restaurants"
"390","5l8S70308R_Osh3hm2zj3Q","""""Hot Bagels and Deli""""","","""""34640 N Valley Pkwy""""","Phoenix","AZ","85086",33.7991098079,-112.130926219,4,132,1,"Breakfast & Brunch;Restaurants;Food;Delis;Bagels"
"391","qjqaRKX7dXqWcKNH1RxLZg","""""Fusion Burritos""""","","""""546 N Gilbert Rd""""","Gilbert","AZ","85234",33.3602435,-111.7901059,3.5,15,0,"Asian Fusion;Fast Food;Restaurants;Mexican"
"392","QS7_BPmaBNvznOMhcVBemg","""""Silk Road Asian Bistro""""","Eastside","""""3000 Paradise Rd""""","Las Vegas","NV","89109",36.1362575,-115.1512526,3,35,1,"Chinese;Ramen;Japanese;Barbeque;Restaurants;Vietnamese"
"393","zEd3Ex_k3vHiBbBPWRrO7Q","""""Panda Express""""","Summerlin","""""7560 W Lake Mead Blvd""""","Las Vegas","NV","89128",36.1976151704,-115.260134434,2.5,34,1,"Fast Food;Chinese;Restaurants"
"394","DbvgZm5ZKNqqTFsjCEPHmg","""""Royal Cafe""""","","""""10793 Grand Ave""""","Sun City","AZ","85351",33.6020712218,-112.2930974,3,53,1,"Burgers;Pizza;American (Traditional);Restaurants"
"395","pxv5jBUOgsg6Rf6Z88e4mg","""""The Attic Ale House""""","","""""4247 E Indian School Rd""""","Phoenix","AZ","85018",33.494594,-111.9893448,4,337,1,"Pizza;Restaurants;Burgers;Nightlife;Bars;Beer Gardens;Wine Bars;American (New);Pubs;Gastropubs"
"396","fbUKZMGNdzQbb3zksGlQXg","""""Down South Restaurant""""","","""""124 S 24th St""""","Phoenix","AZ","85034",33.446027931,-112.030825987,3,9,0,"Restaurants;American (Traditional);Southern"
"397","KZ9v7M1A5t6OMDghR64_5g","""""12 East Cafe""""","","""""1153 E Jefferson St""""","Phoenix","AZ","85034",33.446778,-112.056714,3,8,0,"Restaurants;Breakfast & Brunch;American (New)"
"398","0kgib8EeCvEerG1R4T1okg","""""Posidon Greek Restaurant & Market""""","","""""961 W Main St""""","Mesa","AZ","85201",33.4149317,-111.8501092,4,25,0,"Restaurants;Greek"
"399","9edPSkfXKsJmkZYIaOmA7Q","""""Las Vegas South Premium Outlets""""","Southeast","""""7400 Las Vegas Blvd S""""","Las Vegas","NV","89123",36.0539333477,-115.168928254,3.5,393,1,"Shopping;Restaurants;Shopping Centers;Fashion;Outlet Stores"
"400","Wlcl0ITWjyhqCiSlPmSAlg","""""Billy Bob's Steakhouse""""","","""""5111 Boulder Hwy""""","Las Vegas","NV","89122",36.1128082,-115.0622887,3,104,0,"Restaurants;Steakhouses"
"401","LpHi2ooFxVn5Ntttw_IcaQ","""""The Herb Box""""","","""""20707 N Pima Rd, Ste 140-145, DC Ranch""""","Scottsdale","AZ","85255",33.6734322408,-111.889232427,4,303,1,"Restaurants;Breakfast & Brunch;Caterers;Sandwiches;Event Planning & Services;American (New)"
"402","JWqc2Nost9wDFrbBhnCUAw","""""Freddy's Frozen Custard & Steakburger""""","","""""7670 W Bell Rd""""","Glendale","AZ","85308",33.6386164451,-112.22413106,3.5,52,1,"Burgers;Restaurants;Food;Ice Cream & Frozen Yogurt"
"403","3mucgnB2iGTLlnebJ57FkA","""""Zendejas Grill""""","","""""19420 N 59th Ave""""","Glendale","AZ","85308",33.6624675,-112.18689,3,37,0,"Restaurants;American (New)"
"404","32RDYS1pxMytL1rBSF__UA","""""Papa Murphy's""""","","""""1955 West Baseline Road""""","Mesa","AZ","85202",33.3775284,-111.876986,4,19,1,"Restaurants;Pizza"
"405","vxuyl9IVum8zngXgvbT4Jg","""""Freddy's Frozen Custard & Steakburgers""""","","""""129 E Williams Field Rd""""","Gilbert","AZ","85295",33.3059362523,-111.786838174,4,83,1,"Ice Cream & Frozen Yogurt;Burgers;Food;Restaurants"
"406","F2HKV9oJhnIKQ-M4Gt4Ftg","""""Voodoo Wing Company""""","Northwest","""""6728 W Cheyenne Ave""""","Las Vegas","NV","89108",36.2185398,-115.2431106,4,227,1,"Food;Barbeque;Chicken Wings;Restaurants"
"407","4gwh0q7JsdzHIm_pdYUlZg","""""ShinBay""""","","""""7001 N Scottsdale Rd""""","Scottsdale","AZ","85253",33.5395321685,-111.924576391,4.5,158,0,"Seafood;Japanese;Restaurants"
"408","uHUcYpGlcdlu5m7oiZGY6w","""""Max's Restaurant""""","University","""""1290 E Flamingo Rd""""","Las Vegas","NV","89119",36.114859,-115.136639,3,345,1,"Restaurants;Seafood;Filipino;Breakfast & Brunch;Asian Fusion"
"409","5JjGTaZkHbbjBrzBODcsAQ","""""Daisho Sushi""""","Southeast","""""7435 S Eastern Ave""""","Las Vegas","NV","89123",36.055832,-115.120023,4,268,1,"Salad;Japanese;Sushi Bars;Restaurants"
"410","sU1sSEOHvd4ex72miOKMEQ","""""Blimpie""""","","""""2303 N 44th St, Ste 16""""","Phoenix","AZ","85008",33.4738083448,-111.986775927,3.5,25,1,"Sandwiches;Restaurants;American (New)"
"411","S4qUsi44l5D9BbUCkhwQEA","""""New India Gate""""","","""""4939 W Ray Rd, Ste 1""""","Chandler","AZ","85226",33.31923,-111.925813,4.5,354,1,"Buffets;Bars;Nightlife;Vegan;Beer Bar;Indian;Halal;Restaurants"
"412","a_E-rLe2zcyX-X4FKhWWRg","""""Tacos Maricos Sinaloa""""","","""""2802 W McDowell Rd""""","Phoenix","AZ","85009",33.4662224,-112.1197552,2.5,8,1,"Restaurants"
"413","yA6dKNm_zl1ucZCnwW8ZCg","""""Italian Grotto""""","","""""3915 N Scottsdale Rd""""","Scottsdale","AZ","85251",33.4929188,-111.9258903,2.5,460,1,"Seafood;Restaurants;Italian;Steakhouses"
"414","1LSdIQQVvzzyDyiYPxztkg","""""Vegenation""""","Anthem","""""10075 S Eastern Ave""""","Henderson","NV","89052",36.0051261,-115.1127292,4.5,59,1,"Vegan;Restaurants"
"415","etzDsNjkCyQBoJcU2a3U-g","""""Denny's""""","Southeast","""""9320 S Eastern Ave""""","Las Vegas","NV","89123",36.0198206582,-115.118057951,3,80,1,"American (Traditional);Diners;Restaurants;Breakfast & Brunch"
"416","GT9Hx_Na0vH3Na7ym9dp4A","""""Shooters Bar & Grill""""","Sunrise","""""4465 E Sahara Ave""""","Las Vegas","NV","89104",36.1439838,-115.0774281,4,15,1,"Pizza;Chicken Wings;Restaurants;American (Traditional);Pubs;Bars;Nightlife"
"417","NszlQiLiHVCuT7LjAnlvnQ","""""Hungry Howie's Pizza""""","","""""7448 W Glendale Ave, Ste 106""""","Glendale","AZ","85303",33.5391062462,-112.217822111,3,20,1,"Restaurants;Pizza"
"418","cJjUslSTMtUU2lG8BKCX6A","""""Filibertos Mexican Food""""","","""""1322 E Chandler Blvd""""","Phoenix","AZ","85048",33.305824557,-112.053625437,2,4,1,"Mexican;Restaurants"
"419","01cFftHZc98jNJfJrLEJ5g","""""Hookmeup Gourmet Sandwiches""""","","""""15425 S 48th St, Ste 116""""","Phoenix","AZ","85044",33.3066645,-111.9799023,4.5,148,0,"Desserts;Vegan;Delis;Sandwiches;Restaurants;Food"
"420","hh-N1r9O1JpvzGw1mp0bKw","""""Rock'N'oodles""""","Downtown","""""1108 S 3rd St""""","Las Vegas","NV","89104",36.1584369,-115.1512011,4.5,310,0,"Noodles;Food;American (New);Italian;Local Flavor;Salad;Restaurants"
"421","2LZGeJy8qByYKB71ML-jcw","""""Rock & Rita's""""","The Strip","""""Circus Circus Hotel and Casino, 2800 Las Vegas Blvd S""""","Las Vegas","NV","89109",36.136946734,-115.163813579,2.5,94,0,"American (Traditional);Barbeque;American (New);Restaurants"
"422","mZI_wVrLOjz4M-QIC9n-jA","""""PT's""""","University","""""1089 E Tropicana Ave""""","Las Vegas","NV","89119",36.1008854,-115.1384919,2.5,35,1,"Bars;Sports Bars;Pubs;Restaurants;American (New);Nightlife"
"423","iUbDIvZ0FuATXmnCkk0KeQ","""""Mariscos Ensenada 7""""","","""""4212 W Cactus Rd""""","Phoenix","AZ","85029",33.5981674,-112.150726,3,6,0,"Mexican;Restaurants"
"424","opKWjqkJH2_cq_9t3r1RSw","""""Quiznos""""","","""""21043 N Cave Creek Rd, Ste A2""""","Phoenix","AZ","85024",33.6790374,-112.0300807,3,18,1,"Fast Food;Sandwiches;Delis;Restaurants"
"425","r93Aubf4vZ9ogtmEb6dV4g","""""Raspados Playas""""","","""""3416 E Lake Mead Blvd""""","North Las Vegas","NV","89030",36.1958706,-115.1018372,1.5,5,1,"Mexican;Restaurants"
"426","6seqxavbOMXDrQ1W2pZlMA","""""Shish Kebab House""""","","""""5023 W Olive Ave""""","Glendale","AZ","85302",33.5674844,-112.1673493,3.5,14,0,"Restaurants;Greek;Mediterranean;Persian/Iranian"
"427","rZy_R2plYStLFyZR92WNZw","""""China Star Super Buffet""""","","""""3507 W Dunlap Ave""""","Phoenix","AZ","85073",33.5674031,-112.1350865,3,7,0,"Restaurants;Buffets;Chinese"
"428","ZtJ6sTq7-5rL9ORUtQJHAQ","""""Gaetano's Ristorante""""","Anthem","""""10271 S Eastern Ave, Ste 111""""","Henderson","NV","89052",36.0029991,-115.1105835,4,358,1,"Italian;Restaurants"
"429","FNe5PPA9pyj8FjcDefCBpg","""""Weera Thai Restaurant""""","Westside","""""3839 W Sahara Ave, Ste 7-9""""","Las Vegas","NV","89102",36.143956,-115.1930886,4,648,1,"Thai;Restaurants;Food;Bars;Food Delivery Services;Noodles;Vegetarian;Beer;Wine & Spirits;Nightlife;Beer Bar;Wine Bars"
"430","Xgp67egWT56FmGrULkKOJg","""""Subway""""","Centennial","""""6475 N Decatur Blvd, Ste 110""""","Las Vegas","NV","89131",36.2768676,-115.2078847,2.5,12,1,"Sandwiches;Fast Food;Restaurants"
"431","z65wZ11iw7Y-WBZ9UDZhnA","""""Pisa Pizza""""","The Strip","""""3635 S Las Vegas Blvd, Ste 103""""","Las Vegas","NV","89109",36.1143130753,-115.172434844,4,36,1,"Restaurants;Pizza"
"432","O5jWRmilHqaW54ChJh1oFg","""""Peter Piper Pizza""""","","""""1906 W Rio Salado""""","Mesa","AZ","85201",33.4300004,-111.8720821,2.5,36,1,"Buffets;Pizza;Restaurants;Chicken Wings"
"433","5OLtY1-xR6LjeH3kJGJ5UA","""""Scentz N Sudz""""","Sunrise","""""3935 E Charleston Blvd, Ste B3-B4""""","Las Vegas","NV","89104",36.1580819,-115.0899685,4.5,3,1,"Shopping;Restaurants;Beauty & Spas;South African;Personal Shopping;African;Cosmetics & Beauty Supply"
"434","kQabQnNavQ7FgfyuXf8Niw","""""Papa Murphy's""""","Southwest","""""8595 S Decatur Blvd""""","Las Vegas","NV","89139",36.0335123,-115.2084299,3.5,28,1,"Restaurants;Pizza;Gluten-Free;Salad"
"435","TW58a4UkMcksdfQ7znUqsA","""""Doh Korean BBQ""""","Southwest","""""7920 S Rainbow Blvd, Ste 105""""","Las Vegas","NV","89139",36.0447183,-115.2427053,4,308,1,"Restaurants;Barbeque;Korean"
"436","DpCdZ3EfAoGgJzcvaR0quQ","""""6 Degrees Urban Kitchen""""","","""""8989 N Scottsdale Rd, Ste 608""""","Scottsdale","AZ","85253",33.5670808,-111.9242929,4,56,1,"Gastropubs;Breakfast & Brunch;American (New);Bars;Cocktail Bars;Restaurants;Nightlife"
"437","10GxV6JOKPoR1w5KC2iZjA","""""Soda Bun Thai Food""""","","""""2740 S Alma School Rd, Ste 5""""","Mesa","AZ","85210",33.3653600592,-111.860603789,4.5,148,1,"Food;Soup;Thai;Food Delivery Services;Vegetarian;Salad;Restaurants"
"438","pB9ZZGJaApSw2PMcOTc8og","""""Otaku""""","","""""2430 S Gilbert Rd""""","Chandler","AZ","85286",33.2711907,-111.7908072,4,308,1,"Restaurants;Asian Fusion;Sushi Bars;Chinese"
"439","JtCRmopBq7khv1tO6Pn_6A","""""McCool's Bar & Grill""""","","""""4910 W Ray Rd""""","Chandler","AZ","85226",33.3202337,-111.9265734,4.5,7,0,"Nightlife;American (Traditional);Restaurants;Bars"
"440","EqUlVPI8t9A96BIvWdW1pw","""""Joey's Tavern""""","Northwest","""""7081 W Craig Rd""""","Las Vegas","NV","89129",36.237869,-115.248219,3.5,53,1,"Bars;American (New);Restaurants;Nightlife"
"441","jG46RAFm2kWshUIZ4HoJtg","""""Tadka Sizzles""""","","""""4030 E Bell Rd, Ste 101""""","Phoenix","AZ","85032",33.6417888,-111.9947311,3,11,0,"Party & Event Planning;Indian;Event Planning & Services;Restaurants"
"442","SWZ_GqiaAoc4JoUOosF0mg","""""The Sugar Corner""""","University","""""1083 E Tropicana Ave""""","Las Vegas","NV","89119",36.1006924561,-115.139449359,4,43,1,"Restaurants;Bakeries;Cuban;Ethnic Food;Food;Specialty Food;Latin American;Breakfast & Brunch"
"443","IkLAUX7lZIWqE9_YC66SRw","""""il Capo Pizzeria""""","","""""7366 E Shea Blvd, Ste 102""""","Scottsdale","AZ","85260",33.5840139,-111.9222691,4,214,1,"Nightlife;Food;Pizza;Bars;Wine Bars;Italian;Restaurants;Beer;Wine & Spirits"
"444","m5niZy68d2gTtVWz89elfA","""""Slidin Thru""""","Southeast","""""6478 Windy Rd""""","Las Vegas","NV","89119",36.071643,-115.176101,4,364,1,"Restaurants;Food Trucks;Food Stands;Food;Burgers"
"445","B56AYe5GNuavMDtwFsXqzA","""""Petite Maison""""","","""""7216 E Shoeman Ln""""","Scottsdale","AZ","85251",33.5010896,-111.9255,4,286,0,"Restaurants;French"
"446","x7NOFYcoL0XmErLrkqBLeg","""""Tommy Pastrami""""","","""""193 N Gibson Rd""""","Henderson","NV","89077",36.0408745,-115.0298326,2.5,7,0,"Sandwiches;Restaurants;Delis"
"447","axnI-1l2a_kydvL12-toIQ","""""King's Fish House- Henderson""""","Anthem","""""2255 Village Walk Dr, Ste 139, The District at Green Valley Ranch""""","Henderson","NV","89052",36.0208796613,-115.086857985,4,241,1,"Seafood;Restaurants"
"448","wMCpQoNfwX3B3KfJUfdwAg","""""Taco Bell""""","","""""1220 North 51st Ave""""","Phoenix","AZ","85043",33.462309,-112.169006,4.5,3,1,"Tex-Mex;Restaurants;Fast Food;Mexican"
"449","4P0X_Mfb0HEmvXR47w_xWg","""""Adaptive Force Performing Arts""""","","""""32619 N Scottsdale Rd, Ste 110""""","Scottsdale","AZ","85266",33.7814775,-111.9257498,4.5,13,1,"Pizza;Performing Arts;Fitness & Instruction;Dance Studios;Active Life;Arts & Entertainment;Restaurants"
"450","Yv9zUwWSyig0xhgDsv4qjQ","""""Popeyes Louisiana Kitchen""""","","""""5329 S Power Rd""""","MESA","AZ","85212",33.3173826,-111.6868665,3.5,14,1,"Seafood;Sandwiches;Fast Food;Restaurants;Chicken Wings;Southern;American (Traditional)"
"451","rYG3Bbsf3u2P4N4ZxQXyKw","""""Bachi Healthy Life Kitchen""""","Spring Valley","""""6825 W Russell Rd, Ste 115""""","Las Vegas","NV","89118",36.0844749,-115.2412756,3.5,79,0,"Breakfast & Brunch;Restaurants;Food"
"452","UANNbspNsQEFUay5nALZYw","""""Roberto's Taco Shop""""","Southeast","""""6475 S Pecos Rd""""","Las Vegas","NV","89120",36.0724028,-115.101393,3,47,1,"Mexican;Restaurants;Fast Food"
"453","jx4VrFSwbBEUWMpvV4BS7A","""""Satisfied Frog""""","","""""6245 E Cave Creek Rd""""","Cave Creek","AZ","85331",33.8314777,-111.945564,3,9,0,"Dive Bars;Nightlife;Bars;Restaurants"
"454","d6OH_fW7xD0uYMn9U0OSSg","""""McDuffy's-Peoria""""","","""""15814 N 83rd Ave""""","Peoria","AZ","85382",33.628251,-112.238064,3.5,17,0,"Restaurants;Nightlife"
"455","3CxiP8n7DAL-YOOTCW2wNw","""""Jack in the Box""""","Spring Valley","""""7025 S Durango Dr""""","Las Vegas","NV","89113",36.059982,-115.279878,2.5,35,1,"Restaurants;Fast Food"
"456","8oSlQByXcv-QXcBPD8UfNw","""""McDonald's""""","","""""825 W Warner Rd""""","Gilbert","AZ","85233",33.3348903077,-111.807424853,2,25,1,"Burgers;Fast Food;Restaurants"
"457","WyyJdVQBFlPVITTmjgEhlQ","""""Paisanos Pizza""""","","""""4825 W Flamingo Rd, Ste 1""""","Las Vegas","NV","89103",36.1148713,-115.2066735,1.5,8,1,"Pizza;Restaurants"
"458","V1wBDq0zqq2dlyQvzD5PaA","""""101 Bistro""""","","""""101 N 1st Ave""""","Phoenix","AZ","85003",33.449799,-112.074714,3.5,7,0,"American (New);Mediterranean;Restaurants;Greek"
"459","R1oI13c1oNxE91wkjYDeow","""""Pure Sushi""""","","""""20567 N Hayden Rd, Ste 100""""","Scottsdale","AZ","85255",33.6717588,-111.9059217,4,270,1,"Restaurants;Sushi Bars;Asian Fusion;Japanese"
"460","YHN7wVaOFp9wkl_w7NXLXw","""""Kens Burgers and Pizza""""","Southeast","""""7141 S Eastern Ave, Ste D""""","Las Vegas","NV","89119",36.059631,-115.119423,1,4,0,"Restaurants;Pizza;Burgers"
"461","SN6mvy2vbXL0F_CYFkx8zg","""""La Scala""""","Eastside","""""1020 E Desert Inn Rd""""","Las Vegas","NV","89109",36.130315,-115.140852,4,56,0,"Restaurants;Italian"
"462","oXCHDIEU41jUiiKOsbRMtQ","""""CG's Pizza""""","","""""6320 N Simmons, Ste 135""""","North Las Vegas","NV","89031",36.2749579921,-115.179190189,4.5,12,0,"Pizza;Food;Restaurants"
"463","OVTZNSkSfbl3gVB9XQIJfw","""""Cravings Buffet""""","The Strip","""""3400 Las Vegas Blvd S""""","Las Vegas","NV","89109",36.121237,-115.174105,3,1252,1,"American (Traditional);Buffets;Restaurants;American (New)"
"464","0HDl2_hbneqSu9qVBEfinw","""""McDonald's""""","","""""305 E Hunt Hwy""""","San Tan Valley","AZ","85143",33.1617115,-111.5643819,1.5,17,1,"Burgers;Restaurants;Fast Food"
"465","ajQQsRF1efdIKCscNw0jEg","""""Papa Kenos""""","","""""2510 E Hunt Hwy""""","San Tan Valley","AZ","85143",33.1373225085,-111.539259556,3,9,0,"Local Flavor;Italian;Pizza;Restaurants"
"466","EwldVuxL-KJaIxxi2FApNw","""""Arby's""""","","""""2220 W Deer Valley Rd""""","Phoenix","AZ","85027",33.6842049,-112.1072844,3,18,1,"Restaurants;Sandwiches;Fast Food"
"467","ExLXL_oQvI7oPB7TrVpGhg","""""Pieology Pizzeria""""","","""""9915 W McDowell Rd""""","Avondale","AZ","85392",33.464148,-112.2731978,4,115,1,"Restaurants;Pizza;Italian"
"468","JDZ6_yycNQFTpUZzLIKHUg","""""El Dorado Cantina""""","","""""3025 Sammy Davis Jr Dr""""","Las Vegas","NV","89109",36.1349154274,-115.175822005,4,1694,1,"Lounges;Mexican;Restaurants;Bars;Nightlife"
"469","-Ma5JqzuI_3xIAtpNJfQ2g","""""Krachai Thai Kitchen""""","","""""3361 W Greenway Rd""""","Phoenix","AZ","85053",33.6248167,-112.1310047,4,170,1,"Restaurants;Thai"
"470","UK2sK9SkdBdK1uxv8TcWGg","""""Chuy's Mesquite Broiler""""","","""""1831 E Baseline Rd""""","Tempe","AZ","85283",33.3779711,-111.9057836,3,13,0,"Restaurants;Southern"
"471","dSnQTUJC0tCHadU1AGzvrw","""""Isabella's Kitchen""""","","""""8623 E Thompson Peak Pkwy""""","Scottsdale","AZ","85255",33.6758835,-111.8964923,3.5,217,1,"Beer;Wine & Spirits;Food;Restaurants;Nightlife;Bars;Italian"
"472","EC_ira45x9ayj1p_S-emEQ","""""Wienerschnitzel""""","","""""9370 West Northern Ave""""","Glendale","AZ","85305",33.5525657,-112.2609671,3.5,26,1,"Sandwiches;Restaurants;Fast Food;Hot Dogs"
"473","O0DxNujKaN-KIfcgbV3MgA","""""Pollo Inka Express""""","Downtown","""""2440 S Maryland Pkwy""""","Las Vegas","NV","89104",36.144531023,-115.137545876,4,123,1,"Restaurants;Peruvian;Latin American;Fast Food"
"474","Ysd8pj0sZpfPq0xNQd8fXA","""""Filiberto's Mexican Food""""","","""""209 N. 24th St""""","Phoenix","AZ","85034",33.450595,-112.029835,2.5,9,1,"Mexican;Restaurants"
"475","7SBa8bkHyHV3ZqSxTOYiew","""""Quill Creek Cafe""""","","""""8620 E Thompson Peak Pkwy""""","Scottsdale","AZ","85255",33.6780517,-111.89714,3.5,22,1,"Cafes;Restaurants;Active Life;Golf"
"476","Qb1tuREKTsyVKO6DiDQXgg","""""Mi Familia Mexican Food""""","","""""25155 N 67th Ave, Ste 138""""","Phoenix","AZ","85083",33.7135776,-112.2023003,3,126,1,"Restaurants;Mexican"
"477","fq6O53rLxzjUjaYNhx_95g","""""Taqueria La Jacky""""","","""""532 E Western Ave""""","Avondale","AZ","85323",33.4353457,-112.3438078,3.5,14,1,"Mexican;Restaurants"
"478","t2QVTKD4PSS3vQxM3UP8Qw","""""Brueggers Bagels""""","","""""721 N Arizona Ave""""","Gilbert","AZ","85233",33.363016,-111.841114,3,28,0,"Restaurants;Breakfast & Brunch;Bagels;Food;Sandwiches"
"479","edskUGX_9FHCFnDG2ETKIw","""""Bourbon Jacks""""","","""""7000 E Mayo Blvd, Bldg 5""""","Phoenix","AZ","85054",33.655381524,-111.926875666,3.5,167,0,"Music Venues;Restaurants;Bars;Arts & Entertainment;American (Traditional);Nightlife"
"480","0Rjgq0tHv3enQW8lNbrrVg","""""Dairy Queen""""","","""""6548 E Cave Creek Rd""""","Cave Creek","AZ","85331",33.8333958,-111.9398294,2.5,19,1,"Fast Food;Food;Restaurants;Ice Cream & Frozen Yogurt"
"481","JPJv82VJabWUDraSg-gRkw","""""Wienerschnitzel""""","","""""2575 Windmill Pkwy""""","Henderson","NV","89074",36.0419595,-115.0987533,3.5,11,1,"Fast Food;Restaurants;Hot Dogs;Sandwiches"
"482","bbMJNMWjd7n2ztcE79ZwfQ","""""The Blue Moon""""","","""""2911 E Van Buren St""""","Phoenix","AZ","85008",33.4508655,-112.0187997,1.5,3,1,"Dance Clubs;Adult Entertainment;Nightlife;Restaurants"
"483","riFzCvp77DMKDX-5GoTpqA","""""Steak 'n Shake""""","Southeast","""""9777 Las Vegas Blvd S""""","Las Vegas","NV","89183",36.0114062572,-115.1757787,3.5,778,1,"Restaurants;Food;Fast Food;Burgers"
"484","uWJ9AtXLAlD9OgvY4ZQlIg","""""Cafe Rio""""","","""""2748 S Signal Butte Rd""""","Mesa","AZ","85209",33.3648254367,-111.60351769,2.5,32,1,"Desserts;Restaurants;Food;Tacos;Mexican"
"485","ZLuWpmvO41w2bSwufgfUlQ","""""Cielo Restaurant""""","","""""7353 E Indian School Rd""""","Scottsdale","AZ","85251",33.4945672,-111.9222222,3.5,18,0,"Italian;Restaurants"
"486","MrRu3ZE1QKaXfAzfOtAkDw","""""Durger Dog""""","","""""2235 S Power Rd, Ste 120""""","Mesa","AZ","85209",33.375057,-111.687177,4,20,0,"Burgers;Restaurants"
"487","_Wcp-JfSzhjplX0J1Q_5OA","""""Chefs At Your Home""""","","""""2507 E Roma Ave""""","Phoenix","AZ","85016",33.500981,-112.027641,5,6,1,"Gluten-Free;Restaurants;Food;Event Planning & Services;Caterers;Personal Chefs;Food Delivery Services"
"488","E35tgfjzj5P5PV_w7Kgu8w","""""Wildburger""""","","""""2800 S Rancho Dr""""","Las Vegas","NV","89102",36.1939353943,-115.191902161,4,16,0,"Burgers;Bars;Nightlife;American (New);Restaurants"
"489","BZhmsHFyyj_mKkBdPvIgAw","""""Port of Subs""""","","""""4645 E Broadway, Ste 101""""","Phoenix","AZ","85040",33.4069946,-111.98087,3.5,20,1,"Sandwiches;Restaurants;Delis"
"490","IRzXVRIzRoYpnjaVXF3vNA","""""Northside Café and Chinese Kitchen""""","The Strip","""""SLS Las Vegas, 2535 S. Las Vegas Blvd""""","Las Vegas","NV","89109",36.1423259,-115.1561477,3.5,512,1,"Restaurants;Diners;Breakfast & Brunch;Cafes"
"491","9aYmWMneDv9huo9140VJfw","""""Nourish""""","","""""1495 S Higley Rd""""","Gilbert","AZ","85296",33.3230501922,-111.719734812,3.5,59,1,"Restaurants;Gluten-Free"
"492","JU2K7-ZmLZWc43ASTs7T1Q","""""Native Grill & Wings""""","","""""4972 S Power Rd""""","Gilbert","AZ","85236",33.3260640127,-111.687687635,3.5,116,1,"Bars;Sports Bars;Restaurants;American (Traditional);Nightlife;Chicken Wings;American (New)"
"493","E6EFZjqmu0V4d_mJLBYSaQ","""""Saboten Grill""""","","""""440 W Warner Rd, Ste 104""""","Tempe","AZ","85284",33.3350531,-111.9445728,3.5,4,0,"Restaurants;Japanese;Vegetarian"
"494","nHT_lECT2AIndXf5h_cfpQ","""""La Mojarra Loca""""","","""""3210 E Lake Mead Blvd, Ste 4""""","North Las Vegas","NV","89030",36.196201,-115.10464,3.5,43,1,"Restaurants;Juice Bars & Smoothies;Food;Mexican"
"495","S_PEroRv40j1In11gNH2LQ","""""Five Guys""""","","""""7290 W Lake Mead Blvd""""","Las Vegas","NV","89128",36.196525,-115.2507281,4,137,1,"Restaurants;Fast Food;Burgers"
"496","XWafv9_J7TUOO4PbEcIFJA","""""Ramiro's Mexican Food""""","","""""1618 W Bell Rd""""","Phoenix","AZ","85023",33.6402587,-112.0936145,4,25,1,"Restaurants;Mexican"
"497","MqJCtE12yfzQZCg8KGzNTw","""""Nick's NY Pizzeria""""","","""""920 E University Dr, Ste 103""""","Tempe","AZ","85281",33.422454109,-111.92559538,3.5,27,0,"Restaurants;Pizza;Italian"
"498","w3-INmhtrrRQUTsNUshyDw","""""Charleys Grilled Subs""""","","""""9617 Metro Pkwy W, Ste MM06""""","Phoenix","AZ","85051",33.574153,-112.12409,4,5,1,"Restaurants;Sandwiches"
"499","70Y9Czch3unQubjQYiAY7Q","""""S'Bistro""""","","""""124 W Main St""""","Mesa","AZ","85201",33.415474,-111.835051,4,6,0,"Restaurants;American (New)"
"500","HcFNeUjeqzhHw1Lk0FZarg","""""Jersey's Bar & Grill""""","Westside","""""4760 W Sahara Ave""""","Las Vegas","NV","89102",36.1465042,-115.2072072,4,5,0,"Restaurants;Sports Bars;Bars;American (Traditional);Nightlife"
"501","GSzgEBYd1hYebz1xi5jrmw","""""Domino's Pizza""""","Centennial","""""7591 N Cimarron Rd, Ste 110""""","Las Vegas","NV","89131",36.2982383,-115.2700183,4,18,1,"Chicken Wings;Sandwiches;Pizza;Restaurants"
"502","JIfSollg32ifUzTw2K4PDQ","""""Taqueria El Buen Pastor""""","","""""530 N Las Vegas Blvd""""","Las Vegas","NV","89101",36.1745608,-115.137042,4.5,127,1,"Street Vendors;Mexican;Food;Restaurants"
"503","Gw-ozqLSHoP3BQPKaiXJGg","""""The Watershed""""","","""""5350 S Lakeshore Dr""""","Tempe","AZ","85283",33.3760012,-111.919865,3,380,1,"Restaurants;American (New);Pubs;American (Traditional);Nightlife;Arts & Entertainment;Music Venues;Sports Bars;Lounges;Bars"
"504","jjJ06LdxITpFaz_EQaEvWQ","""""Vegas Drink And Grill""""","The Strip","""""3061 South Las Vegas Blvd S, Ste 1A""""","Las Vegas","NV","89109",36.1314994,-115.1641624,2.5,3,1,"Restaurants;American (Traditional)"
"505","aqwn3jdQLCWnb59gHK4nAw","""""The Chicken Shack""""","","""""4606 E. Sunset Rd""""","Henderson","NV","89014",36.0721934971,-115.072997733,4,403,1,"Fast Food;Chicken Wings;Chicken Shop;Restaurants"
